{
    "@odata.context" : "https://dws.ppms.va.gov/v1.0/$metadata#Collection(PpmsDataWebService.Models.CareSite)",
    "value" : [
        {
            "Name" : "Beacon Orthopaedics & Sports Medicine Ltd",
            "Id" : "203fa25f-1e06-4811-94cb-0462c480b538",
            "CareSiteType" : "Facility",
            "VaCareSite" : false,
            "CenterOfExcellence" : "Unknown",
            "SiteContactName" : null,
            "OwningOrganizationName" : null,
            "OtherName" : null,
            "IsHandicapAccessible" : false,
            "IsExternal" : true,
            "Street" : "500 E Business Way",
            "City" : "Sharonville",
            "State" : "OH",
            "ZipCode" : "45241",
            "County" : null,
            "Country" : null,
            "Latitude" : 39.285282,
            "Longitude" : -84.365756,
            "Geocoded" : true,
            "Visn" : null,
            "Facility" : null,
            "ParentStationNumber" : null,
            "StationNumber" : null,
            "StationName" : null,
            "MainSitePhone" : null
        },
        {
            "Name" : "Sharon Hospital Medical Practice",
            "Id" : "71a07d59-1304-4e6b-bfd3-00002299138e",
            "CareSiteType" : "Facility",
            "VaCareSite" : false,
            "CenterOfExcellence" : "Unknown",
            "SiteContactName" : null,
            "OwningOrganizationName" : null,
            "OtherName" : null,
            "IsHandicapAccessible" : false,
            "IsExternal" : true,
            "Street" : "50 Hospital Hill Rd",
            "City" : "Sharon",
            "State" : "CT",
            "ZipCode" : "06069",
            "County" : null,
            "Country" : null,
            "Latitude" : 41.88094667,
            "Longitude" : -73.48159833,
            "Geocoded" : true,
            "Visn" : null,
            "Facility" : null,
            "ParentStationNumber" : null,
            "StationNumber" : null,
            "StationName" : null,
            "MainSitePhone" : null
        },
        {
            "Name" : "WALLACE COUNTY FAMILY PRACTICE CLINIC",
            "Id" : "5e6029bb-acc2-413c-b500-0577f223afbc",
            "CareSiteType" : "Facility",
            "VaCareSite" : false,
            "CenterOfExcellence" : "Unknown",
            "SiteContactName" : null,
            "OwningOrganizationName" : null,
            "OtherName" : null,
            "IsHandicapAccessible" : false,
            "IsExternal" : true,
            "Street" : "504 E 6th",
            "City" : "Sharon Springs",
            "State" : "KS",
            "ZipCode" : "67758",
            "County" : null,
            "Country" : null,
            "Latitude" : 38.900732,
            "Longitude" : -101.746397,
            "Geocoded" : true,
            "Visn" : null,
            "Facility" : null,
            "ParentStationNumber" : null,
            "StationNumber" : null,
            "StationName" : null,
            "MainSitePhone" : null
        },
        {
            "Name" : "SMG VCS Region",
            "Id" : "a91b4fd9-82f5-405c-8e2d-09f3b7cca7de",
            "CareSiteType" : "Facility",
            "VaCareSite" : false,
            "CenterOfExcellence" : "Unknown",
            "SiteContactName" : null,
            "OwningOrganizationName" : null,
            "OtherName" : null,
            "IsHandicapAccessible" : false,
            "IsExternal" : true,
            "Street" : "2425 Garden Way Ste 101",
            "City" : "Sharon",
            "State" : "PA",
            "ZipCode" : "16148",
            "County" : null,
            "Country" : null,
            "Latitude" : 41.237411,
            "Longitude" : -80.46515,
            "Geocoded" : true,
            "Visn" : null,
            "Facility" : null,
            "ParentStationNumber" : null,
            "StationNumber" : null,
            "StationName" : null,
            "MainSitePhone" : null
        },
        {
            "Name" : "JOEL PHILIP WAYS O.D.",
            "Id" : "ea39c3ea-92e2-4cb2-8361-0bd9d49fb88b",
            "CareSiteType" : "Facility",
            "VaCareSite" : false,
            "CenterOfExcellence" : "Unknown",
            "SiteContactName" : null,
            "OwningOrganizationName" : null,
            "OtherName" : null,
            "IsHandicapAccessible" : false,
            "IsExternal" : true,
            "Street" : "89 E State St",
            "City" : "Sharon",
            "State" : "PA",
            "ZipCode" : "16146",
            "County" : null,
            "Country" : null,
            "Latitude" : 41.233182,
            "Longitude" : -80.507543,
            "Geocoded" : true,
            "Visn" : null,
            "Facility" : null,
            "ParentStationNumber" : null,
            "StationNumber" : null,
            "StationName" : null,
            "MainSitePhone" : null
        },
        {
            "Name" : "Primary Health Network",
            "Id" : "498b3466-fe9d-4c4e-829f-0d770901587d",
            "CareSiteType" : "Facility",
            "VaCareSite" : false,
            "CenterOfExcellence" : "Unknown",
            "SiteContactName" : null,
            "OwningOrganizationName" : null,
            "OtherName" : null,
            "IsHandicapAccessible" : false,
            "IsExternal" : true,
            "Street" : "197 E Silver St Ste 4",
            "City" : "Sharon",
            "State" : "PA",
            "ZipCode" : "16146",
            "County" : null,
            "Country" : null,
            "Latitude" : 41.23471,
            "Longitude" : -80.50544,
            "Geocoded" : true,
            "Visn" : null,
            "Facility" : null,
            "ParentStationNumber" : null,
            "StationNumber" : null,
            "StationName" : null,
            "MainSitePhone" : null
        },
        {
            "Name" : "Hudson Valley Cardiovascular Practice PC",
            "Id" : "ee88cffe-fb17-4bfb-ab9b-0da29b101678",
            "CareSiteType" : "Facility",
            "VaCareSite" : false,
            "CenterOfExcellence" : "Unknown",
            "SiteContactName" : null,
            "OwningOrganizationName" : null,
            "OtherName" : null,
            "IsHandicapAccessible" : false,
            "IsExternal" : true,
            "Street" : "50 Hospital Hill Rd",
            "City" : "Sharon",
            "State" : "CT",
            "ZipCode" : "06069",
            "County" : null,
            "Country" : null,
            "Latitude" : 41.879791,
            "Longitude" : -73.481466,
            "Geocoded" : true,
            "Visn" : null,
            "Facility" : null,
            "ParentStationNumber" : null,
            "StationNumber" : null,
            "StationName" : null,
            "MainSitePhone" : null
        },
        {
            "Name" : "GIFFORD MEDICAL CENTER INC",
            "Id" : "d5620384-a71b-4b38-aae4-1306903c7a48",
            "CareSiteType" : "Facility",
            "VaCareSite" : false,
            "CenterOfExcellence" : "Unknown",
            "SiteContactName" : null,
            "OwningOrganizationName" : null,
            "OtherName" : null,
            "IsHandicapAccessible" : false,
            "IsExternal" : true,
            "Street" : "12 SHIPPEE LN",
            "City" : "SHARON",
            "State" : "VT",
            "ZipCode" : "05065",
            "County" : null,
            "Country" : null,
            "Latitude" : 43.781142,
            "Longitude" : -72.466522,
            "Geocoded" : true,
            "Visn" : null,
            "Facility" : null,
            "ParentStationNumber" : null,
            "StationNumber" : null,
            "StationName" : null,
            "MainSitePhone" : null
        },
        {
            "Name" : "Select Physical Therapy",
            "Id" : "c5210b30-6d7f-4945-8fd4-139a9e932d10",
            "CareSiteType" : "Facility",
            "VaCareSite" : false,
            "CenterOfExcellence" : "Unknown",
            "SiteContactName" : null,
            "OwningOrganizationName" : "Select Physical Therapy Holdings Inc",
            "OtherName" : null,
            "IsHandicapAccessible" : false,
            "IsExternal" : true,
            "Street" : "50 Amenia Rd",
            "City" : "Sharon",
            "State" : "CT",
            "ZipCode" : "06069",
            "County" : null,
            "Country" : null,
            "Latitude" : 41.876599,
            "Longitude" : -73.479671,
            "Geocoded" : true,
            "Visn" : null,
            "Facility" : null,
            "ParentStationNumber" : null,
            "StationNumber" : null,
            "StationName" : null,
            "MainSitePhone" : null
        },
        {
            "Name" : "Univ of Pittsburgh Physicians",
            "Id" : "91f1ab78-7f16-4f52-8b7f-13c1585554e7",
            "CareSiteType" : "Facility",
            "VaCareSite" : false,
            "CenterOfExcellence" : "Unknown",
            "SiteContactName" : null,
            "OwningOrganizationName" : null,
            "OtherName" : null,
            "IsHandicapAccessible" : false,
            "IsExternal" : true,
            "Street" : "1075 N Hermitage Rd",
            "City" : "Sharon",
            "State" : "PA",
            "ZipCode" : "16148",
            "County" : null,
            "Country" : null,
            "Latitude" : 41.247511,
            "Longitude" : -80.449906,
            "Geocoded" : true,
            "Visn" : null,
            "Facility" : null,
            "ParentStationNumber" : null,
            "StationNumber" : null,
            "StationName" : null,
            "MainSitePhone" : null
        },
        {
            "Name" : "31 ASHCROFF RD, SHARON, MA, 02067",
            "Id" : "52a1272b-eff1-e811-8131-1458d04d2848",
            "CareSiteType" : "NonVaSite",
            "VaCareSite" : false,
            "CenterOfExcellence" : "Unknown",
            "SiteContactName" : null,
            "OwningOrganizationName" : "Margil, Richard",
            "OtherName" : null,
            "IsHandicapAccessible" : false,
            "IsExternal" : false,
            "Street" : "31 ASHCROFF RD",
            "City" : "SHARON",
            "State" : "MA",
            "ZipCode" : "02067",
            "County" : null,
            "Country" : null,
            "Latitude" : 42.128554,
            "Longitude" : -71.172124,
            "Geocoded" : true,
            "Visn" : null,
            "Facility" : null,
            "ParentStationNumber" : null,
            "StationNumber" : null,
            "StationName" : null,
            "MainSitePhone" : null
        },
        {
            "Name" : "740 E STATE ST, SHARON, PA, 16146",
            "Id" : "875d6f01-54c2-e811-812a-1458d04da5b0",
            "CareSiteType" : "NonVaSite",
            "VaCareSite" : false,
            "CenterOfExcellence" : "Unknown",
            "SiteContactName" : null,
            "OwningOrganizationName" : "PENN-OHIO ASSOCIATES IN ANESTHESIOLOGY, LLC",
            "OtherName" : null,
            "IsHandicapAccessible" : false,
            "IsExternal" : false,
            "Street" : "740 E STATE ST",
            "City" : "SHARON",
            "State" : "PA",
            "ZipCode" : "16146",
            "County" : null,
            "Country" : null,
            "Latitude" : 41.232869,
            "Longitude" : -80.495621,
            "Geocoded" : true,
            "Visn" : null,
            "Facility" : null,
            "ParentStationNumber" : null,
            "StationNumber" : null,
            "StationName" : null,
            "MainSitePhone" : null
        },
        {
            "Name" : "734 STAMBAUGH AVE, SHARON, PA, 16146",
            "Id" : "12498237-54c2-e811-812a-1458d04da5b0",
            "CareSiteType" : "NonVaSite",
            "VaCareSite" : false,
            "CenterOfExcellence" : "Unknown",
            "SiteContactName" : null,
            "OwningOrganizationName" : "SECOND TO NONE HOMECARE -- NO LONGER UTILIZING",
            "OtherName" : null,
            "IsHandicapAccessible" : false,
            "IsExternal" : false,
            "Street" : "734 STAMBAUGH AVE",
            "City" : "SHARON",
            "State" : "PA",
            "ZipCode" : "16146",
            "County" : null,
            "Country" : null,
            "Latitude" : 41.222957,
            "Longitude" : -80.493538,
            "Geocoded" : true,
            "Visn" : null,
            "Facility" : null,
            "ParentStationNumber" : null,
            "StationNumber" : null,
            "StationName" : null,
            "MainSitePhone" : null
        },
        {
            "Name" : "SMG VCS Region",
            "Id" : "38375118-1b3e-4436-96d2-170513f358f9",
            "CareSiteType" : "Facility",
            "VaCareSite" : false,
            "CenterOfExcellence" : "Unknown",
            "SiteContactName" : null,
            "OwningOrganizationName" : null,
            "OtherName" : null,
            "IsHandicapAccessible" : false,
            "IsExternal" : true,
            "Street" : "2501 Shenango Valley Fwy Ste 3",
            "City" : "Sharon",
            "State" : "PA",
            "ZipCode" : "16148",
            "County" : null,
            "Country" : null,
            "Latitude" : 41.228197,
            "Longitude" : -80.463851,
            "Geocoded" : true,
            "Visn" : null,
            "Facility" : null,
            "ParentStationNumber" : null,
            "StationNumber" : null,
            "StationName" : null,
            "MainSitePhone" : null
        },
        {
            "Name" : "Beacon Orthopaedics & Sports Medicine Ltd",
            "Id" : "ac52d833-7d4f-406a-80ee-1b7069767a87",
            "CareSiteType" : "Facility",
            "VaCareSite" : false,
            "CenterOfExcellence" : "Unknown",
            "SiteContactName" : null,
            "OwningOrganizationName" : null,
            "OtherName" : null,
            "IsHandicapAccessible" : false,
            "IsExternal" : true,
            "Street" : "500 E Business Way Ste A",
            "City" : "Sharonville",
            "State" : "OH",
            "ZipCode" : "45241",
            "County" : null,
            "Country" : null,
            "Latitude" : 39.285282,
            "Longitude" : -84.365756,
            "Geocoded" : true,
            "Visn" : null,
            "Facility" : null,
            "ParentStationNumber" : null,
            "StationNumber" : null,
            "StationName" : null,
            "MainSitePhone" : null
        },
        {
            "Name" : "Tripp Chiropractic & Nutrition Inc",
            "Id" : "cb211509-42fc-458e-af00-1d188457bee3",
            "CareSiteType" : "Facility",
            "VaCareSite" : false,
            "CenterOfExcellence" : "Unknown",
            "SiteContactName" : null,
            "OwningOrganizationName" : null,
            "OtherName" : null,
            "IsHandicapAccessible" : false,
            "IsExternal" : true,
            "Street" : "155 N Hermitage Rd",
            "City" : "Sharon",
            "State" : "PA",
            "ZipCode" : "16148",
            "County" : null,
            "Country" : null,
            "Latitude" : 41.23639083,
            "Longitude" : -80.45052583,
            "Geocoded" : true,
            "Visn" : null,
            "Facility" : null,
            "ParentStationNumber" : null,
            "StationNumber" : null,
            "StationName" : null,
            "MainSitePhone" : null
        },
        {
            "Name" : "UPMC Urgent Care Hermitage",
            "Id" : "5ce04b62-ef60-4648-9ba3-217fdda1f91a",
            "CareSiteType" : "Facility",
            "VaCareSite" : false,
            "CenterOfExcellence" : "Unknown",
            "SiteContactName" : null,
            "OwningOrganizationName" : null,
            "OtherName" : null,
            "IsHandicapAccessible" : false,
            "IsExternal" : true,
            "Street" : "1075 N Hermitage Rd",
            "City" : "Sharon",
            "State" : "PA",
            "ZipCode" : "16148",
            "County" : null,
            "Country" : null,
            "Latitude" : 41.247511,
            "Longitude" : -80.449906,
            "Geocoded" : true,
            "Visn" : null,
            "Facility" : null,
            "ParentStationNumber" : null,
            "StationNumber" : null,
            "StationName" : null,
            "MainSitePhone" : null
        },
        {
            "Name" : "Beacon Orthopaedics & Sports Medicine Ltd",
            "Id" : "2901e4bf-dda3-4a69-8771-22297a503728",
            "CareSiteType" : "Facility",
            "VaCareSite" : false,
            "CenterOfExcellence" : "Unknown",
            "SiteContactName" : null,
            "OwningOrganizationName" : null,
            "OtherName" : null,
            "IsHandicapAccessible" : false,
            "IsExternal" : true,
            "Street" : "500 Ebusiness Way",
            "City" : "Sharonville",
            "State" : "OH",
            "ZipCode" : "45241",
            "County" : null,
            "Country" : null,
            "Latitude" : 0,
            "Longitude" : 0,
            "Geocoded" : false,
            "Visn" : null,
            "Facility" : null,
            "ParentStationNumber" : null,
            "StationNumber" : null,
            "StationName" : null,
            "MainSitePhone" : null
        },
        {
            "Name" : "Middle Ct Emergency Physicians LLC",
            "Id" : "2fe4d9f2-70ca-4aa5-b5ba-234533828626",
            "CareSiteType" : "Facility",
            "VaCareSite" : false,
            "CenterOfExcellence" : "Unknown",
            "SiteContactName" : null,
            "OwningOrganizationName" : null,
            "OtherName" : null,
            "IsHandicapAccessible" : false,
            "IsExternal" : true,
            "Street" : "50 Hospital Hill Rd",
            "City" : "Sharon",
            "State" : "CT",
            "ZipCode" : "06069",
            "County" : null,
            "Country" : null,
            "Latitude" : 41.88094667,
            "Longitude" : -73.48159833,
            "Geocoded" : true,
            "Visn" : null,
            "Facility" : null,
            "ParentStationNumber" : null,
            "StationNumber" : null,
            "StationName" : null,
            "MainSitePhone" : null
        },
        {
            "Name" : "SMG VCS Region",
            "Id" : "4b8db747-d0b0-452b-a7b2-23d62a939b0b",
            "CareSiteType" : "Facility",
            "VaCareSite" : false,
            "CenterOfExcellence" : "Unknown",
            "SiteContactName" : null,
            "OwningOrganizationName" : null,
            "OtherName" : null,
            "IsHandicapAccessible" : false,
            "IsExternal" : true,
            "Street" : "2151 Shenango Valley Fwy",
            "City" : "Sharon",
            "State" : "PA",
            "ZipCode" : "16148",
            "County" : null,
            "Country" : null,
            "Latitude" : 41.22696,
            "Longitude" : -80.46983,
            "Geocoded" : true,
            "Visn" : null,
            "Facility" : null,
            "ParentStationNumber" : null,
            "StationNumber" : null,
            "StationName" : null,
            "MainSitePhone" : null
        },
        {
            "Name" : "Irynn and Associates",
            "Id" : "58556429-3d3b-47ec-b0a8-263c1e525a44",
            "CareSiteType" : "Facility",
            "VaCareSite" : false,
            "CenterOfExcellence" : "Unknown",
            "SiteContactName" : null,
            "OwningOrganizationName" : null,
            "OtherName" : null,
            "IsHandicapAccessible" : false,
            "IsExternal" : true,
            "Street" : "1075 N Hermitage Rd",
            "City" : "Sharon",
            "State" : "PA",
            "ZipCode" : "16148",
            "County" : null,
            "Country" : null,
            "Latitude" : 41.247511,
            "Longitude" : -80.449906,
            "Geocoded" : true,
            "Visn" : null,
            "Facility" : null,
            "ParentStationNumber" : null,
            "StationNumber" : null,
            "StationName" : null,
            "MainSitePhone" : null
        },
        {
            "Name" : "Excela Health Pathology",
            "Id" : "5bfce5d7-8780-4d92-aaa1-2e3cb8bf406d",
            "CareSiteType" : "Facility",
            "VaCareSite" : false,
            "CenterOfExcellence" : "Unknown",
            "SiteContactName" : null,
            "OwningOrganizationName" : null,
            "OtherName" : null,
            "IsHandicapAccessible" : false,
            "IsExternal" : true,
            "Street" : "740 E State St",
            "City" : "Sharon",
            "State" : "PA",
            "ZipCode" : "16146",
            "County" : null,
            "Country" : null,
            "Latitude" : 41.232871,
            "Longitude" : -80.495553,
            "Geocoded" : true,
            "Visn" : null,
            "Facility" : null,
            "ParentStationNumber" : null,
            "StationNumber" : null,
            "StationName" : null,
            "MainSitePhone" : null
        },
        {
            "Name" : "SMG VCS Region",
            "Id" : "74cc6458-f216-4815-9dd8-330ecd1c1a08",
            "CareSiteType" : "Facility",
            "VaCareSite" : false,
            "CenterOfExcellence" : "Unknown",
            "SiteContactName" : null,
            "OwningOrganizationName" : null,
            "OtherName" : null,
            "IsHandicapAccessible" : false,
            "IsExternal" : true,
            "Street" : "2435 Garden Way",
            "City" : "Sharon",
            "State" : "PA",
            "ZipCode" : "16148",
            "County" : null,
            "Country" : null,
            "Latitude" : 41.237411,
            "Longitude" : -80.464901,
            "Geocoded" : true,
            "Visn" : null,
            "Facility" : null,
            "ParentStationNumber" : null,
            "StationNumber" : null,
            "StationName" : null,
            "MainSitePhone" : null
        },
        {
            "Name" : "Allegheny Clinic Medical Oncology",
            "Id" : "486e83f6-96ff-4d6a-bc06-338b274c2330",
            "CareSiteType" : "Facility",
            "VaCareSite" : false,
            "CenterOfExcellence" : "Unknown",
            "SiteContactName" : null,
            "OwningOrganizationName" : null,
            "OtherName" : null,
            "IsHandicapAccessible" : false,
            "IsExternal" : true,
            "Street" : "2320 Highland Rd",
            "City" : "Sharon",
            "State" : "PA",
            "ZipCode" : "16148",
            "County" : null,
            "Country" : null,
            "Latitude" : 41.239192,
            "Longitude" : -80.466289,
            "Geocoded" : true,
            "Visn" : null,
            "Facility" : null,
            "ParentStationNumber" : null,
            "StationNumber" : null,
            "StationName" : null,
            "MainSitePhone" : null
        },
        {
            "Name" : "MDIG of Pennsylvania LLC",
            "Id" : "c79e6da6-b571-47ce-888c-34436b3f7df4",
            "CareSiteType" : "Facility",
            "VaCareSite" : false,
            "CenterOfExcellence" : "Unknown",
            "SiteContactName" : null,
            "OwningOrganizationName" : null,
            "OtherName" : null,
            "IsHandicapAccessible" : false,
            "IsExternal" : true,
            "Street" : "740 E State St",
            "City" : "Sharon",
            "State" : "PA",
            "ZipCode" : "16146",
            "County" : null,
            "Country" : null,
            "Latitude" : 41.232179,
            "Longitude" : -80.496174,
            "Geocoded" : true,
            "Visn" : null,
            "Facility" : null,
            "ParentStationNumber" : null,
            "StationNumber" : null,
            "StationName" : null,
            "MainSitePhone" : null
        },
        {
            "Name" : "WALGREENS                                                   ",
            "Id" : "adba895a-054f-4871-a50a-3b299ea8054c",
            "CareSiteType" : "Pharmacy",
            "VaCareSite" : false,
            "CenterOfExcellence" : "Unknown",
            "SiteContactName" : null,
            "OwningOrganizationName" : null,
            "OtherName" : null,
            "IsHandicapAccessible" : false,
            "IsExternal" : true,
            "Street" : "12110 LEBANON RD",
            "City" : "SHARONVILLE                                       ",
            "State" : "OH",
            "ZipCode" : "45241",
            "County" : null,
            "Country" : null,
            "Latitude" : 39.294828,
            "Longitude" : -84.391735,
            "Geocoded" : true,
            "Visn" : null,
            "Facility" : null,
            "ParentStationNumber" : null,
            "StationNumber" : null,
            "StationName" : null,
            "MainSitePhone" : null
        },
        {
            "Name" : "ENCOMPASS HEALTH REHAB HOSP OF BRAINTRE",
            "Id" : "169c33a6-1e24-4cd5-bceb-3b3682532ef8",
            "CareSiteType" : "Facility",
            "VaCareSite" : false,
            "CenterOfExcellence" : "Unknown",
            "SiteContactName" : null,
            "OwningOrganizationName" : null,
            "OtherName" : null,
            "IsHandicapAccessible" : false,
            "IsExternal" : true,
            "Street" : "778 S MAIN ST STE 2",
            "City" : "SHARON",
            "State" : "MA",
            "ZipCode" : "02067-2841",
            "County" : "NORFOLK",
            "Country" : null,
            "Latitude" : 42.09458333,
            "Longitude" : -71.219945,
            "Geocoded" : true,
            "Visn" : null,
            "Facility" : null,
            "ParentStationNumber" : null,
            "StationNumber" : null,
            "StationName" : null,
            "MainSitePhone" : null
        },
        {
            "Name" : "MICHAEL ROHLFS",
            "Id" : "bf143bed-92bc-4573-8e08-40a8b35b4872",
            "CareSiteType" : "Facility",
            "VaCareSite" : false,
            "CenterOfExcellence" : "Unknown",
            "SiteContactName" : null,
            "OwningOrganizationName" : null,
            "OtherName" : null,
            "IsHandicapAccessible" : false,
            "IsExternal" : true,
            "Street" : "504 E Business Way",
            "City" : "Sharonville",
            "State" : "OH",
            "ZipCode" : "45241",
            "County" : null,
            "Country" : null,
            "Latitude" : 39.285569,
            "Longitude" : -84.366494,
            "Geocoded" : true,
            "Visn" : null,
            "Facility" : null,
            "ParentStationNumber" : null,
            "StationNumber" : null,
            "StationName" : null,
            "MainSitePhone" : null
        },
        {
            "Name" : "Community Counseling Center of Ashtabula County",
            "Id" : "b3beefde-dc56-49ae-be8d-42b3edea2b0a",
            "CareSiteType" : "Facility",
            "VaCareSite" : false,
            "CenterOfExcellence" : "Unknown",
            "SiteContactName" : null,
            "OwningOrganizationName" : null,
            "OtherName" : null,
            "IsHandicapAccessible" : false,
            "IsExternal" : true,
            "Street" : "100 Shenango Ave",
            "City" : "Sharon",
            "State" : "PA",
            "ZipCode" : "16146",
            "County" : null,
            "Country" : null,
            "Latitude" : 41.234219,
            "Longitude" : -80.50819,
            "Geocoded" : true,
            "Visn" : null,
            "Facility" : null,
            "ParentStationNumber" : null,
            "StationNumber" : null,
            "StationName" : null,
            "MainSitePhone" : null
        },
        {
            "Name" : "Allegheny Clinic Radiology",
            "Id" : "f5f5a0c6-cea6-4258-9232-42b9fd8af52c",
            "CareSiteType" : "Facility",
            "VaCareSite" : false,
            "CenterOfExcellence" : "Unknown",
            "SiteContactName" : null,
            "OwningOrganizationName" : null,
            "OtherName" : null,
            "IsHandicapAccessible" : false,
            "IsExternal" : true,
            "Street" : "740 E State St",
            "City" : "Sharon",
            "State" : "PA",
            "ZipCode" : "16146",
            "County" : null,
            "Country" : null,
            "Latitude" : 41.232871,
            "Longitude" : -80.495553,
            "Geocoded" : true,
            "Visn" : null,
            "Facility" : null,
            "ParentStationNumber" : null,
            "StationNumber" : null,
            "StationName" : null,
            "MainSitePhone" : null
        },
        {
            "Name" : "Univ of Pittsburgh Physicians",
            "Id" : "83e8ccd9-cce3-41a7-a188-4b2c509c5700",
            "CareSiteType" : "Facility",
            "VaCareSite" : false,
            "CenterOfExcellence" : "Unknown",
            "SiteContactName" : null,
            "OwningOrganizationName" : null,
            "OtherName" : null,
            "IsHandicapAccessible" : false,
            "IsExternal" : true,
            "Street" : "1075 N Hermitage Rd",
            "City" : "Sharon",
            "State" : "PA",
            "ZipCode" : "16148",
            "County" : null,
            "Country" : null,
            "Latitude" : 41.247511,
            "Longitude" : -80.449906,
            "Geocoded" : true,
            "Visn" : null,
            "Facility" : null,
            "ParentStationNumber" : null,
            "StationNumber" : null,
            "StationName" : null,
            "MainSitePhone" : null
        },
        {
            "Name" : "SMG VCS Region",
            "Id" : "65b4b181-8e89-4743-9142-4ed3008548e9",
            "CareSiteType" : "Facility",
            "VaCareSite" : false,
            "CenterOfExcellence" : "Unknown",
            "SiteContactName" : null,
            "OwningOrganizationName" : null,
            "OtherName" : null,
            "IsHandicapAccessible" : false,
            "IsExternal" : true,
            "Street" : "2501 Shenango Valley Fwy",
            "City" : "Sharon",
            "State" : "PA",
            "ZipCode" : "16148",
            "County" : null,
            "Country" : null,
            "Latitude" : 41.228197,
            "Longitude" : -80.463851,
            "Geocoded" : true,
            "Visn" : null,
            "Facility" : null,
            "ParentStationNumber" : null,
            "StationNumber" : null,
            "StationName" : null,
            "MainSitePhone" : null
        },
        {
            "Name" : "SHARON PHARMACY                                             ",
            "Id" : "89d4b2be-42c6-4eb6-a280-503e3a1af928",
            "CareSiteType" : "Pharmacy",
            "VaCareSite" : false,
            "CenterOfExcellence" : "Unknown",
            "SiteContactName" : null,
            "OwningOrganizationName" : null,
            "OtherName" : null,
            "IsHandicapAccessible" : false,
            "IsExternal" : true,
            "Street" : "8 GAY ST",
            "City" : "SHARON                                            ",
            "State" : "CT",
            "ZipCode" : "06069",
            "County" : null,
            "Country" : null,
            "Latitude" : 41.884828,
            "Longitude" : -73.469323,
            "Geocoded" : true,
            "Visn" : null,
            "Facility" : null,
            "ParentStationNumber" : null,
            "StationNumber" : null,
            "StationName" : null,
            "MainSitePhone" : null
        },
        {
            "Name" : "Triad Health Services LLC",
            "Id" : "a720ab40-ad9e-4a06-97b3-519289ab910d",
            "CareSiteType" : "Facility",
            "VaCareSite" : false,
            "CenterOfExcellence" : "Unknown",
            "SiteContactName" : null,
            "OwningOrganizationName" : null,
            "OtherName" : null,
            "IsHandicapAccessible" : false,
            "IsExternal" : true,
            "Street" : "2425 Garden Way Ste 101",
            "City" : "Sharon",
            "State" : "PA",
            "ZipCode" : "16148",
            "County" : null,
            "Country" : null,
            "Latitude" : 41.237411,
            "Longitude" : -80.46515,
            "Geocoded" : true,
            "Visn" : null,
            "Facility" : null,
            "ParentStationNumber" : null,
            "StationNumber" : null,
            "StationName" : null,
            "MainSitePhone" : null
        },
        {
            "Name" : "Sharon Pennsylvania Hospital Company LLC",
            "Id" : "5aa4d59a-b1bf-4cef-a306-57d1e4f10fff",
            "CareSiteType" : "Facility",
            "VaCareSite" : false,
            "CenterOfExcellence" : "Unknown",
            "SiteContactName" : null,
            "OwningOrganizationName" : "Sharon Pennsylvania Hospital Company",
            "OtherName" : null,
            "IsHandicapAccessible" : false,
            "IsExternal" : true,
            "Street" : "740 E State St",
            "City" : "Sharon",
            "State" : "PA",
            "ZipCode" : "16146",
            "County" : null,
            "Country" : null,
            "Latitude" : 41.232871,
            "Longitude" : -80.495553,
            "Geocoded" : true,
            "Visn" : null,
            "Facility" : null,
            "ParentStationNumber" : null,
            "StationNumber" : null,
            "StationName" : null,
            "MainSitePhone" : null
        },
        {
            "Name" : "Primary Health Network",
            "Id" : "8bdfcde4-1dca-41f8-becb-58fd332d586e",
            "CareSiteType" : "Facility",
            "VaCareSite" : false,
            "CenterOfExcellence" : "Unknown",
            "SiteContactName" : null,
            "OwningOrganizationName" : null,
            "OtherName" : null,
            "IsHandicapAccessible" : false,
            "IsExternal" : true,
            "Street" : "197 E Silver St Ste 6",
            "City" : "Sharon",
            "State" : "PA",
            "ZipCode" : "16146",
            "County" : null,
            "Country" : null,
            "Latitude" : 41.23471,
            "Longitude" : -80.50544,
            "Geocoded" : true,
            "Visn" : null,
            "Facility" : null,
            "ParentStationNumber" : null,
            "StationNumber" : null,
            "StationName" : null,
            "MainSitePhone" : null
        },
        {
            "Name" : "Steward Medical Group Inc",
            "Id" : "643b8b7e-4e89-4567-bf07-5b27cac349d8",
            "CareSiteType" : "Facility",
            "VaCareSite" : false,
            "CenterOfExcellence" : "Unknown",
            "SiteContactName" : null,
            "OwningOrganizationName" : null,
            "OtherName" : null,
            "IsHandicapAccessible" : false,
            "IsExternal" : true,
            "Street" : "740 E State St",
            "City" : "Sharon",
            "State" : "PA",
            "ZipCode" : "16146",
            "County" : null,
            "Country" : null,
            "Latitude" : 41.23194167,
            "Longitude" : -80.49593833,
            "Geocoded" : true,
            "Visn" : null,
            "Facility" : null,
            "ParentStationNumber" : null,
            "StationNumber" : null,
            "StationName" : null,
            "MainSitePhone" : null
        },
        {
            "Name" : "SHARON PHARMACY",
            "Id" : "fb95692f-ed24-4a43-b7c4-5d1b01429a03",
            "CareSiteType" : "Pharmacy",
            "VaCareSite" : false,
            "CenterOfExcellence" : "Unknown",
            "SiteContactName" : null,
            "OwningOrganizationName" : null,
            "OtherName" : null,
            "IsHandicapAccessible" : false,
            "IsExternal" : true,
            "Street" : "63 PITT ST",
            "City" : "SHARON",
            "State" : "PA",
            "ZipCode" : "16146",
            "County" : "MERCER",
            "Country" : null,
            "Latitude" : 41.234138,
            "Longitude" : -80.507675,
            "Geocoded" : true,
            "Visn" : null,
            "Facility" : null,
            "ParentStationNumber" : null,
            "StationNumber" : null,
            "StationName" : null,
            "MainSitePhone" : null
        },
        {
            "Name" : "BHS Family Medical Care",
            "Id" : "5e5c4bd1-b897-4db0-ac8b-5e2831e02c55",
            "CareSiteType" : "Facility",
            "VaCareSite" : false,
            "CenterOfExcellence" : "Unknown",
            "SiteContactName" : null,
            "OwningOrganizationName" : null,
            "OtherName" : null,
            "IsHandicapAccessible" : false,
            "IsExternal" : true,
            "Street" : "740 E State St",
            "City" : "Sharon",
            "State" : "PA",
            "ZipCode" : "16146",
            "County" : null,
            "Country" : null,
            "Latitude" : 41.232179,
            "Longitude" : -80.496174,
            "Geocoded" : true,
            "Visn" : null,
            "Facility" : null,
            "ParentStationNumber" : null,
            "StationNumber" : null,
            "StationName" : null,
            "MainSitePhone" : null
        },
        {
            "Name" : "SHARON PHARMACY INC",
            "Id" : "2ede28d5-efb2-4aa9-9ffc-60c9925599da",
            "CareSiteType" : "Pharmacy",
            "VaCareSite" : false,
            "CenterOfExcellence" : "Unknown",
            "SiteContactName" : null,
            "OwningOrganizationName" : null,
            "OtherName" : null,
            "IsHandicapAccessible" : false,
            "IsExternal" : true,
            "Street" : "8 GAY ST",
            "City" : "SHARON",
            "State" : "CT",
            "ZipCode" : "06069",
            "County" : "LITCHFIELD",
            "Country" : null,
            "Latitude" : 41.884828,
            "Longitude" : -73.469323,
            "Geocoded" : true,
            "Visn" : null,
            "Facility" : null,
            "ParentStationNumber" : null,
            "StationNumber" : null,
            "StationName" : null,
            "MainSitePhone" : null
        },
        {
            "Name" : "HUDSON VALLEY CARDIOVASCULAR PRACTICE",
            "Id" : "494af1bd-9a09-4636-8025-6117df6db9fb",
            "CareSiteType" : "Facility",
            "VaCareSite" : false,
            "CenterOfExcellence" : "Unknown",
            "SiteContactName" : null,
            "OwningOrganizationName" : null,
            "OtherName" : null,
            "IsHandicapAccessible" : false,
            "IsExternal" : true,
            "Street" : "50 HOSPITAL HILL RD",
            "City" : "SHARON",
            "State" : "CT",
            "ZipCode" : "06069-2096",
            "County" : "LITCHFIELD",
            "Country" : null,
            "Latitude" : 41.880586,
            "Longitude" : -73.481615,
            "Geocoded" : true,
            "Visn" : null,
            "Facility" : null,
            "ParentStationNumber" : null,
            "StationNumber" : null,
            "StationName" : null,
            "MainSitePhone" : null
        },
        {
            "Name" : "SHARON PHARMACY                                             ",
            "Id" : "02243f1a-123d-4eed-9b0b-63572a3abf72",
            "CareSiteType" : "Pharmacy",
            "VaCareSite" : false,
            "CenterOfExcellence" : "Unknown",
            "SiteContactName" : null,
            "OwningOrganizationName" : null,
            "OtherName" : null,
            "IsHandicapAccessible" : false,
            "IsExternal" : true,
            "Street" : "63 PITT ST STE 102",
            "City" : "SHARON                                            ",
            "State" : "PA",
            "ZipCode" : "16146",
            "County" : null,
            "Country" : null,
            "Latitude" : 41.234138,
            "Longitude" : -80.507675,
            "Geocoded" : true,
            "Visn" : null,
            "Facility" : null,
            "ParentStationNumber" : null,
            "StationNumber" : null,
            "StationName" : null,
            "MainSitePhone" : null
        },
        {
            "Name" : "Jameson Memorial Hospital",
            "Id" : "3e8adab8-88cd-4b08-ac2e-63c464dc321f",
            "CareSiteType" : "Facility",
            "VaCareSite" : false,
            "CenterOfExcellence" : "Unknown",
            "SiteContactName" : null,
            "OwningOrganizationName" : null,
            "OtherName" : null,
            "IsHandicapAccessible" : false,
            "IsExternal" : true,
            "Street" : "2500 Highland Rd Ste 105",
            "City" : "Sharon",
            "State" : "PA",
            "ZipCode" : "16148",
            "County" : null,
            "Country" : null,
            "Latitude" : 41.239236,
            "Longitude" : -80.464825,
            "Geocoded" : true,
            "Visn" : null,
            "Facility" : null,
            "ParentStationNumber" : null,
            "StationNumber" : null,
            "StationName" : null,
            "MainSitePhone" : null
        },
        {
            "Name" : "CVS                                                         ",
            "Id" : "fdcce599-6c00-4617-92aa-68ccafe5471f",
            "CareSiteType" : "Pharmacy",
            "VaCareSite" : false,
            "CenterOfExcellence" : "Unknown",
            "SiteContactName" : null,
            "OwningOrganizationName" : null,
            "OtherName" : null,
            "IsHandicapAccessible" : false,
            "IsExternal" : true,
            "Street" : "15027 STATE HWY 6",
            "City" : "ROSHARON                                          ",
            "State" : "TX",
            "ZipCode" : "77583",
            "County" : null,
            "Country" : null,
            "Latitude" : 29.496433,
            "Longitude" : -95.438232,
            "Geocoded" : true,
            "Visn" : null,
            "Facility" : null,
            "ParentStationNumber" : null,
            "StationNumber" : null,
            "StationName" : null,
            "MainSitePhone" : null
        },
        {
            "Name" : "CLEPPER MANOR",
            "Id" : "ffac5385-7be5-4a39-ad0b-6958dc09d3d5",
            "CareSiteType" : "Facility",
            "VaCareSite" : false,
            "CenterOfExcellence" : "Unknown",
            "SiteContactName" : null,
            "OwningOrganizationName" : null,
            "OtherName" : null,
            "IsHandicapAccessible" : false,
            "IsExternal" : true,
            "Street" : "959 E STATE ST",
            "City" : "SHARON",
            "State" : "PA",
            "ZipCode" : "16146",
            "County" : "MERCER",
            "Country" : null,
            "Latitude" : 41.233318,
            "Longitude" : -80.491619,
            "Geocoded" : true,
            "Visn" : null,
            "Facility" : null,
            "ParentStationNumber" : null,
            "StationNumber" : null,
            "StationName" : null,
            "MainSitePhone" : null
        },
        {
            "Name" : "Primary Health Network",
            "Id" : "0daab2ae-10f5-40cc-9d4d-6d3b576eadb0",
            "CareSiteType" : "Facility",
            "VaCareSite" : false,
            "CenterOfExcellence" : "Unknown",
            "SiteContactName" : null,
            "OwningOrganizationName" : null,
            "OtherName" : null,
            "IsHandicapAccessible" : false,
            "IsExternal" : true,
            "Street" : "197 E Silver St Ste 2",
            "City" : "Sharon",
            "State" : "PA",
            "ZipCode" : "16146",
            "County" : null,
            "Country" : null,
            "Latitude" : 41.23471,
            "Longitude" : -80.50544,
            "Geocoded" : true,
            "Visn" : null,
            "Facility" : null,
            "ParentStationNumber" : null,
            "StationNumber" : null,
            "StationName" : null,
            "MainSitePhone" : null
        },
        {
            "Name" : "LIFE TREE PHARMACY",
            "Id" : "70baa499-726a-44e3-b04d-70267c61f2cd",
            "CareSiteType" : "Pharmacy",
            "VaCareSite" : false,
            "CenterOfExcellence" : "Unknown",
            "SiteContactName" : null,
            "OwningOrganizationName" : null,
            "OtherName" : null,
            "IsHandicapAccessible" : false,
            "IsExternal" : true,
            "Street" : "800 CHESTER PIKE",
            "City" : "SHARON HILL",
            "State" : "PA",
            "ZipCode" : "19079",
            "County" : "DELAWARE",
            "Country" : null,
            "Latitude" : 39.911931,
            "Longitude" : -75.269968,
            "Geocoded" : true,
            "Visn" : null,
            "Facility" : null,
            "ParentStationNumber" : null,
            "StationNumber" : null,
            "StationName" : null,
            "MainSitePhone" : null
        },
        {
            "Name" : "Upmc Community Medicine Inc",
            "Id" : "b91cdfd5-f885-4373-9be6-7045ef7e7c62",
            "CareSiteType" : "Facility",
            "VaCareSite" : false,
            "CenterOfExcellence" : "Unknown",
            "SiteContactName" : null,
            "OwningOrganizationName" : null,
            "OtherName" : null,
            "IsHandicapAccessible" : false,
            "IsExternal" : true,
            "Street" : "705 Brookshire Dr",
            "City" : "Sharon",
            "State" : "PA",
            "ZipCode" : "16148",
            "County" : null,
            "Country" : null,
            "Latitude" : 41.244829,
            "Longitude" : -80.450106,
            "Geocoded" : true,
            "Visn" : null,
            "Facility" : null,
            "ParentStationNumber" : null,
            "StationNumber" : null,
            "StationName" : null,
            "MainSitePhone" : null
        },
        {
            "Name" : "Hudson Valley Cardiovascular Practice PC",
            "Id" : "0d4d58d3-c254-4555-9703-746e5085ed34",
            "CareSiteType" : "Facility",
            "VaCareSite" : false,
            "CenterOfExcellence" : "Unknown",
            "SiteContactName" : null,
            "OwningOrganizationName" : null,
            "OtherName" : null,
            "IsHandicapAccessible" : false,
            "IsExternal" : true,
            "Street" : "50 Hospital Hill Rd",
            "City" : "Sharon",
            "State" : "CT",
            "ZipCode" : "06069",
            "County" : null,
            "Country" : null,
            "Latitude" : 41.879791,
            "Longitude" : -73.481466,
            "Geocoded" : true,
            "Visn" : null,
            "Facility" : null,
            "ParentStationNumber" : null,
            "StationNumber" : null,
            "StationName" : null,
            "MainSitePhone" : null
        },
        {
            "Name" : "VASSAR HEALTH CONNECTICUT",
            "Id" : "a5913172-c9f6-47ed-aa6a-747846defe6a",
            "CareSiteType" : "Facility",
            "VaCareSite" : false,
            "CenterOfExcellence" : "Unknown",
            "SiteContactName" : null,
            "OwningOrganizationName" : null,
            "OtherName" : null,
            "IsHandicapAccessible" : false,
            "IsExternal" : true,
            "Street" : "50 HOSPITAL HILL RD",
            "City" : "SHARON",
            "State" : "CT",
            "ZipCode" : "06069-2096",
            "County" : "LITCHFIELD",
            "Country" : null,
            "Latitude" : 41.880586,
            "Longitude" : -73.481615,
            "Geocoded" : true,
            "Visn" : null,
            "Facility" : null,
            "ParentStationNumber" : null,
            "StationNumber" : null,
            "StationName" : null,
            "MainSitePhone" : null
        },
        {
            "Name" : "Upmc Community Medicine Inc",
            "Id" : "2a4ff378-03fa-43c9-b599-7a959ccd638e",
            "CareSiteType" : "Facility",
            "VaCareSite" : false,
            "CenterOfExcellence" : "Unknown",
            "SiteContactName" : null,
            "OwningOrganizationName" : null,
            "OtherName" : null,
            "IsHandicapAccessible" : false,
            "IsExternal" : true,
            "Street" : "875 N Hermitage Rd",
            "City" : "Sharon",
            "State" : "PA",
            "ZipCode" : "16148",
            "County" : null,
            "Country" : null,
            "Latitude" : 41.244838,
            "Longitude" : -80.450004,
            "Geocoded" : true,
            "Visn" : null,
            "Facility" : null,
            "ParentStationNumber" : null,
            "StationNumber" : null,
            "StationName" : null,
            "MainSitePhone" : null
        },
        {
            "Name" : "RITE AID                                                    ",
            "Id" : "2bfd2c55-2c9e-4b72-9c44-7b47a7141358",
            "CareSiteType" : "Pharmacy",
            "VaCareSite" : false,
            "CenterOfExcellence" : "Unknown",
            "SiteContactName" : null,
            "OwningOrganizationName" : null,
            "OtherName" : null,
            "IsHandicapAccessible" : false,
            "IsExternal" : true,
            "Street" : "60 S WATER ST",
            "City" : "SHARON                                            ",
            "State" : "PA",
            "ZipCode" : "16146",
            "County" : null,
            "Country" : null,
            "Latitude" : 41.230969,
            "Longitude" : -80.512154,
            "Geocoded" : true,
            "Visn" : null,
            "Facility" : null,
            "ParentStationNumber" : null,
            "StationNumber" : null,
            "StationName" : null,
            "MainSitePhone" : null
        },
        {
            "Name" : "DIXON DRUG-WALLACEUNTY                                      ",
            "Id" : "724142fe-f406-47d1-a101-7b5dfda2e325",
            "CareSiteType" : "Pharmacy",
            "VaCareSite" : false,
            "CenterOfExcellence" : "Unknown",
            "SiteContactName" : null,
            "OwningOrganizationName" : null,
            "OtherName" : null,
            "IsHandicapAccessible" : false,
            "IsExternal" : true,
            "Street" : "107 W 2ND STREET",
            "City" : "SHARON SPRINGS                                    ",
            "State" : "KS",
            "ZipCode" : "67758",
            "County" : null,
            "Country" : null,
            "Latitude" : 0,
            "Longitude" : 0,
            "Geocoded" : false,
            "Visn" : null,
            "Facility" : null,
            "ParentStationNumber" : null,
            "StationNumber" : null,
            "StationName" : null,
            "MainSitePhone" : null
        },
        {
            "Name" : "SHARON HOSPITAL",
            "Id" : "0bd60d35-4178-461d-91fc-7dab9b04028b",
            "CareSiteType" : "Facility",
            "VaCareSite" : false,
            "CenterOfExcellence" : "Unknown",
            "SiteContactName" : null,
            "OwningOrganizationName" : "Vassar Health Connecticut Inc",
            "OtherName" : null,
            "IsHandicapAccessible" : false,
            "IsExternal" : true,
            "Street" : "50 Hospital Hill Rd",
            "City" : "Sharon",
            "State" : "CT",
            "ZipCode" : "06069",
            "County" : null,
            "Country" : null,
            "Latitude" : 41.879791,
            "Longitude" : -73.481466,
            "Geocoded" : true,
            "Visn" : null,
            "Facility" : null,
            "ParentStationNumber" : null,
            "StationNumber" : null,
            "StationName" : null,
            "MainSitePhone" : null
        },
        {
            "Name" : "CVS PHARMACY",
            "Id" : "4f6fea24-43f7-4965-a02f-8077ee32e4cc",
            "CareSiteType" : "Pharmacy",
            "VaCareSite" : false,
            "CenterOfExcellence" : "Unknown",
            "SiteContactName" : null,
            "OwningOrganizationName" : null,
            "OtherName" : null,
            "IsHandicapAccessible" : false,
            "IsExternal" : true,
            "Street" : "66 S MAIN ST",
            "City" : "SHARON",
            "State" : "MA",
            "ZipCode" : "02067",
            "County" : "NORFOLK",
            "Country" : null,
            "Latitude" : 42.12133,
            "Longitude" : -71.179988,
            "Geocoded" : true,
            "Visn" : null,
            "Facility" : null,
            "ParentStationNumber" : null,
            "StationNumber" : null,
            "StationName" : null,
            "MainSitePhone" : null
        },
        {
            "Name" : "RITE AID PHARMACY",
            "Id" : "4cdb8680-f166-46e2-86cd-80e94ce06ab3",
            "CareSiteType" : "Pharmacy",
            "VaCareSite" : false,
            "CenterOfExcellence" : "Unknown",
            "SiteContactName" : null,
            "OwningOrganizationName" : null,
            "OtherName" : null,
            "IsHandicapAccessible" : false,
            "IsExternal" : true,
            "Street" : "811 E STATE ST",
            "City" : "SHARON",
            "State" : "PA",
            "ZipCode" : "16146",
            "County" : "MERCER",
            "Country" : null,
            "Latitude" : 41.233484,
            "Longitude" : -80.494311,
            "Geocoded" : true,
            "Visn" : null,
            "Facility" : null,
            "ParentStationNumber" : null,
            "StationNumber" : null,
            "StationName" : null,
            "MainSitePhone" : null
        },
        {
            "Name" : "Md4er LLC",
            "Id" : "0ed27bee-edb5-4a45-a4b5-81c5e8394025",
            "CareSiteType" : "Facility",
            "VaCareSite" : false,
            "CenterOfExcellence" : "Unknown",
            "SiteContactName" : null,
            "OwningOrganizationName" : null,
            "OtherName" : null,
            "IsHandicapAccessible" : false,
            "IsExternal" : true,
            "Street" : "740 E State St",
            "City" : "Sharon",
            "State" : "PA",
            "ZipCode" : "16146",
            "County" : null,
            "Country" : null,
            "Latitude" : 41.232179,
            "Longitude" : -80.496174,
            "Geocoded" : true,
            "Visn" : null,
            "Facility" : null,
            "ParentStationNumber" : null,
            "StationNumber" : null,
            "StationName" : null,
            "MainSitePhone" : null
        },
        {
            "Name" : "SMG VCS Region",
            "Id" : "591c9bb4-c34b-4400-8d08-8aaf5e8658e9",
            "CareSiteType" : "Facility",
            "VaCareSite" : false,
            "CenterOfExcellence" : "Unknown",
            "SiteContactName" : null,
            "OwningOrganizationName" : null,
            "OtherName" : null,
            "IsHandicapAccessible" : false,
            "IsExternal" : true,
            "Street" : "2501 Shenango Valley Fwy",
            "City" : "Sharon",
            "State" : "PA",
            "ZipCode" : "16148",
            "County" : null,
            "Country" : null,
            "Latitude" : 41.228197,
            "Longitude" : -80.463851,
            "Geocoded" : true,
            "Visn" : null,
            "Facility" : null,
            "ParentStationNumber" : null,
            "StationNumber" : null,
            "StationName" : null,
            "MainSitePhone" : null
        },
        {
            "Name" : "CVS                                                         ",
            "Id" : "629aed6a-b329-41fe-83c5-8f6a31ddd52e",
            "CareSiteType" : "Pharmacy",
            "VaCareSite" : false,
            "CenterOfExcellence" : "Unknown",
            "SiteContactName" : null,
            "OwningOrganizationName" : null,
            "OtherName" : null,
            "IsHandicapAccessible" : false,
            "IsExternal" : true,
            "Street" : "4000 HAUCK RD",
            "City" : "SHARONVILLE                                       ",
            "State" : "OH",
            "ZipCode" : "45241",
            "County" : null,
            "Country" : null,
            "Latitude" : 39.291078,
            "Longitude" : -84.393726,
            "Geocoded" : true,
            "Visn" : null,
            "Facility" : null,
            "ParentStationNumber" : null,
            "StationNumber" : null,
            "StationName" : null,
            "MainSitePhone" : null
        },
        {
            "Name" : "Excela Health Pathology",
            "Id" : "27d8a2ea-e1d7-4fe7-bbf3-9595b713f120",
            "CareSiteType" : "Facility",
            "VaCareSite" : false,
            "CenterOfExcellence" : "Unknown",
            "SiteContactName" : null,
            "OwningOrganizationName" : null,
            "OtherName" : null,
            "IsHandicapAccessible" : false,
            "IsExternal" : true,
            "Street" : "740 E State St",
            "City" : "Sharon",
            "State" : "PA",
            "ZipCode" : "16146",
            "County" : null,
            "Country" : null,
            "Latitude" : 41.232871,
            "Longitude" : -80.495553,
            "Geocoded" : true,
            "Visn" : null,
            "Facility" : null,
            "ParentStationNumber" : null,
            "StationNumber" : null,
            "StationName" : null,
            "MainSitePhone" : null
        },
        {
            "Name" : "Usacs Integrated Acute Care Services of Pennsylvania Ltd",
            "Id" : "fa7346c9-aab1-474c-93f9-96a9b3de6a99",
            "CareSiteType" : "Facility",
            "VaCareSite" : false,
            "CenterOfExcellence" : "Unknown",
            "SiteContactName" : null,
            "OwningOrganizationName" : null,
            "OtherName" : null,
            "IsHandicapAccessible" : false,
            "IsExternal" : true,
            "Street" : "740 E State St",
            "City" : "Sharon",
            "State" : "PA",
            "ZipCode" : "16146",
            "County" : null,
            "Country" : null,
            "Latitude" : 41.232871,
            "Longitude" : -80.495553,
            "Geocoded" : true,
            "Visn" : null,
            "Facility" : null,
            "ParentStationNumber" : null,
            "StationNumber" : null,
            "StationName" : null,
            "MainSitePhone" : null
        },
        {
            "Name" : "East Indiana Treatment Center LLC",
            "Id" : "b4b0a67b-022e-4a55-9c75-96e0f8dd7d10",
            "CareSiteType" : "Facility",
            "VaCareSite" : false,
            "CenterOfExcellence" : "Unknown",
            "SiteContactName" : null,
            "OwningOrganizationName" : null,
            "OtherName" : null,
            "IsHandicapAccessible" : false,
            "IsExternal" : true,
            "Street" : "500 Ebusiness Way",
            "City" : "Sharonville",
            "State" : "OH",
            "ZipCode" : "45241",
            "County" : null,
            "Country" : null,
            "Latitude" : 0,
            "Longitude" : 0,
            "Geocoded" : false,
            "Visn" : null,
            "Facility" : null,
            "ParentStationNumber" : null,
            "StationNumber" : null,
            "StationName" : null,
            "MainSitePhone" : null
        },
        {
            "Name" : "Allegheny Center For Digestive Health",
            "Id" : "9f223a01-bebb-40b0-9a22-97e0c22b5441",
            "CareSiteType" : "Facility",
            "VaCareSite" : false,
            "CenterOfExcellence" : "Unknown",
            "SiteContactName" : null,
            "OwningOrganizationName" : null,
            "OtherName" : null,
            "IsHandicapAccessible" : false,
            "IsExternal" : true,
            "Street" : "2501 Shenango Valley Fwy",
            "City" : "Sharon",
            "State" : "PA",
            "ZipCode" : "16148",
            "County" : null,
            "Country" : null,
            "Latitude" : 41.228393,
            "Longitude" : -80.458878,
            "Geocoded" : true,
            "Visn" : null,
            "Facility" : null,
            "ParentStationNumber" : null,
            "StationNumber" : null,
            "StationName" : null,
            "MainSitePhone" : null
        },
        {
            "Name" : "Beacon Orthopaedics & Sports Medicine Ltd",
            "Id" : "d2c3d012-65a2-4695-8b64-98846a915b4f",
            "CareSiteType" : "Facility",
            "VaCareSite" : false,
            "CenterOfExcellence" : "Unknown",
            "SiteContactName" : null,
            "OwningOrganizationName" : null,
            "OtherName" : null,
            "IsHandicapAccessible" : false,
            "IsExternal" : true,
            "Street" : "500 E Business Way Ste A",
            "City" : "Sharonville",
            "State" : "OH",
            "ZipCode" : "45241",
            "County" : null,
            "Country" : null,
            "Latitude" : 39.285282,
            "Longitude" : -84.365756,
            "Geocoded" : true,
            "Visn" : null,
            "Facility" : null,
            "ParentStationNumber" : null,
            "StationNumber" : null,
            "StationName" : null,
            "MainSitePhone" : null
        },
        {
            "Name" : "Primary Health Network",
            "Id" : "c78a6768-3dc6-44af-8b9d-98aab1d7766a",
            "CareSiteType" : "Facility",
            "VaCareSite" : false,
            "CenterOfExcellence" : "Unknown",
            "SiteContactName" : null,
            "OwningOrganizationName" : null,
            "OtherName" : null,
            "IsHandicapAccessible" : false,
            "IsExternal" : true,
            "Street" : "89 Elm Ave Ste B",
            "City" : "Sharon",
            "State" : "PA",
            "ZipCode" : "16146",
            "County" : null,
            "Country" : null,
            "Latitude" : 41.2343,
            "Longitude" : -80.498286,
            "Geocoded" : true,
            "Visn" : null,
            "Facility" : null,
            "ParentStationNumber" : null,
            "StationNumber" : null,
            "StationName" : null,
            "MainSitePhone" : null
        },
        {
            "Name" : "Sharon Clinic Company LLC",
            "Id" : "4ff2ddd0-45c6-44f3-b80d-98c410e6c5c4",
            "CareSiteType" : "Facility",
            "VaCareSite" : false,
            "CenterOfExcellence" : "Unknown",
            "SiteContactName" : null,
            "OwningOrganizationName" : null,
            "OtherName" : null,
            "IsHandicapAccessible" : false,
            "IsExternal" : true,
            "Street" : "740 E State St",
            "City" : "Sharon",
            "State" : "PA",
            "ZipCode" : "16146",
            "County" : null,
            "Country" : null,
            "Latitude" : 41.23194167,
            "Longitude" : -80.49593833,
            "Geocoded" : true,
            "Visn" : null,
            "Facility" : null,
            "ParentStationNumber" : null,
            "StationNumber" : null,
            "StationName" : null,
            "MainSitePhone" : null
        },
        {
            "Name" : "HOMETECH ADVANCED THERAPIES                                 ",
            "Id" : "23fd4125-ce9c-4908-86b7-991ff51e8b6b",
            "CareSiteType" : "Pharmacy",
            "VaCareSite" : false,
            "CenterOfExcellence" : "Unknown",
            "SiteContactName" : null,
            "OwningOrganizationName" : null,
            "OtherName" : null,
            "IsHandicapAccessible" : false,
            "IsExternal" : true,
            "Street" : "505 ELMWOOD AVE",
            "City" : "SHARON HILL                                       ",
            "State" : "PA",
            "ZipCode" : "19079",
            "County" : null,
            "Country" : null,
            "Latitude" : 39.90926683,
            "Longitude" : -75.26168683,
            "Geocoded" : true,
            "Visn" : null,
            "Facility" : null,
            "ParentStationNumber" : null,
            "StationNumber" : null,
            "StationName" : null,
            "MainSitePhone" : null
        },
        {
            "Name" : "SOLEO HEALTH INC",
            "Id" : "73ef3771-6302-47ee-983c-9b9c27b436fb",
            "CareSiteType" : "Pharmacy",
            "VaCareSite" : false,
            "CenterOfExcellence" : "Unknown",
            "SiteContactName" : null,
            "OwningOrganizationName" : null,
            "OtherName" : null,
            "IsHandicapAccessible" : false,
            "IsExternal" : true,
            "Street" : "950 CALCON HOOK RD SUITE 19",
            "City" : "SHARON HILL",
            "State" : "PA",
            "ZipCode" : "19079",
            "County" : "DELAWARE",
            "Country" : null,
            "Latitude" : 39.901168,
            "Longitude" : -75.264393,
            "Geocoded" : true,
            "Visn" : null,
            "Facility" : null,
            "ParentStationNumber" : null,
            "StationNumber" : null,
            "StationName" : null,
            "MainSitePhone" : null
        },
        {
            "Name" : "EXTRACARE PHARMACY",
            "Id" : "2c83f0e4-21d3-4f92-923f-9bac3ca1fea5",
            "CareSiteType" : "Pharmacy",
            "VaCareSite" : false,
            "CenterOfExcellence" : "Unknown",
            "SiteContactName" : null,
            "OwningOrganizationName" : null,
            "OtherName" : null,
            "IsHandicapAccessible" : false,
            "IsExternal" : true,
            "Street" : "1442A CHESTER PIKE",
            "City" : "SHARON HILL",
            "State" : "PA",
            "ZipCode" : "19079",
            "County" : "DELAWARE",
            "Country" : null,
            "Latitude" : 39.906038604,
            "Longitude" : -75.2786213933,
            "Geocoded" : true,
            "Visn" : null,
            "Facility" : null,
            "ParentStationNumber" : null,
            "StationNumber" : null,
            "StationName" : null,
            "MainSitePhone" : null
        },
        {
            "Name" : "Steward Sharon Regional Health System Inc",
            "Id" : "52f3e622-697d-456b-87a8-a6d16c654c49",
            "CareSiteType" : "Facility",
            "VaCareSite" : false,
            "CenterOfExcellence" : "Unknown",
            "SiteContactName" : null,
            "OwningOrganizationName" : null,
            "OtherName" : null,
            "IsHandicapAccessible" : false,
            "IsExternal" : true,
            "Street" : "752 Brookshire Dr",
            "City" : "Sharon",
            "State" : "PA",
            "ZipCode" : "16148",
            "County" : null,
            "Country" : null,
            "Latitude" : 41.244457,
            "Longitude" : -80.452444,
            "Geocoded" : true,
            "Visn" : null,
            "Facility" : null,
            "ParentStationNumber" : null,
            "StationNumber" : null,
            "StationName" : null,
            "MainSitePhone" : null
        },
        {
            "Name" : "Gi & Internal Medicine Assoc and Connecticut Gastroenterology Medical",
            "Id" : "27dedfc1-b8dc-4450-ab85-a7da3b78100b",
            "CareSiteType" : "Facility",
            "VaCareSite" : false,
            "CenterOfExcellence" : "Unknown",
            "SiteContactName" : null,
            "OwningOrganizationName" : null,
            "OtherName" : null,
            "IsHandicapAccessible" : false,
            "IsExternal" : true,
            "Street" : "29 Hospital Hill Rd Ste 1700",
            "City" : "Sharon",
            "State" : "CT",
            "ZipCode" : "06069",
            "County" : null,
            "Country" : null,
            "Latitude" : 41.879413,
            "Longitude" : -73.480202,
            "Geocoded" : true,
            "Visn" : null,
            "Facility" : null,
            "ParentStationNumber" : null,
            "StationNumber" : null,
            "StationName" : null,
            "MainSitePhone" : null
        },
        {
            "Name" : "University of Pittsburgh Physicians",
            "Id" : "e2ca0aee-bdae-42d9-af70-a9b82e578bf0",
            "CareSiteType" : "Facility",
            "VaCareSite" : false,
            "CenterOfExcellence" : "Unknown",
            "SiteContactName" : null,
            "OwningOrganizationName" : null,
            "OtherName" : null,
            "IsHandicapAccessible" : false,
            "IsExternal" : true,
            "Street" : "1075 N Hermitage Rd",
            "City" : "Sharon",
            "State" : "PA",
            "ZipCode" : "16148",
            "County" : null,
            "Country" : null,
            "Latitude" : 41.247511,
            "Longitude" : -80.449906,
            "Geocoded" : true,
            "Visn" : null,
            "Facility" : null,
            "ParentStationNumber" : null,
            "StationNumber" : null,
            "StationName" : null,
            "MainSitePhone" : null
        },
        {
            "Name" : "Huntingdon Counseling and Psychiatric Services",
            "Id" : "84123258-f4a1-4ad1-8795-ab3b8e0cf69c",
            "CareSiteType" : "Facility",
            "VaCareSite" : false,
            "CenterOfExcellence" : "Unknown",
            "SiteContactName" : null,
            "OwningOrganizationName" : null,
            "OtherName" : null,
            "IsHandicapAccessible" : false,
            "IsExternal" : true,
            "Street" : "100 Shenango Ave",
            "City" : "Sharon",
            "State" : "PA",
            "ZipCode" : "16146",
            "County" : null,
            "Country" : null,
            "Latitude" : 41.234219,
            "Longitude" : -80.50819,
            "Geocoded" : true,
            "Visn" : null,
            "Facility" : null,
            "ParentStationNumber" : null,
            "StationNumber" : null,
            "StationName" : null,
            "MainSitePhone" : null
        },
        {
            "Name" : "FOUNDATION RADIOLOGY GROUP",
            "Id" : "c6c62c43-4c36-49aa-a39d-aee4d4eb1843",
            "CareSiteType" : "Facility",
            "VaCareSite" : false,
            "CenterOfExcellence" : "Unknown",
            "SiteContactName" : null,
            "OwningOrganizationName" : null,
            "OtherName" : null,
            "IsHandicapAccessible" : false,
            "IsExternal" : true,
            "Street" : "740 E STATE ST",
            "City" : "SHARON",
            "State" : "PA",
            "ZipCode" : "16146-3328",
            "County" : "MERCER",
            "Country" : null,
            "Latitude" : 41.232179,
            "Longitude" : -80.496174,
            "Geocoded" : true,
            "Visn" : null,
            "Facility" : null,
            "ParentStationNumber" : null,
            "StationNumber" : null,
            "StationName" : null,
            "MainSitePhone" : null
        },
        {
            "Name" : "ACRO PHARMACEUTICAL SVCS LLC",
            "Id" : "9aba59a3-45c3-49db-9698-b38658146ff6",
            "CareSiteType" : "Pharmacy",
            "VaCareSite" : false,
            "CenterOfExcellence" : "Unknown",
            "SiteContactName" : null,
            "OwningOrganizationName" : null,
            "OtherName" : null,
            "IsHandicapAccessible" : false,
            "IsExternal" : true,
            "Street" : "313 HENDERSON DR",
            "City" : "SHARON HILL",
            "State" : "PA",
            "ZipCode" : "19079",
            "County" : "DELAWARE",
            "Country" : null,
            "Latitude" : 39.906224,
            "Longitude" : -75.261573,
            "Geocoded" : true,
            "Visn" : null,
            "Facility" : null,
            "ParentStationNumber" : null,
            "StationNumber" : null,
            "StationName" : null,
            "MainSitePhone" : null
        },
        {
            "Name" : "Univ of Pittsburgh Physicians",
            "Id" : "0d703bb3-5fcd-40a0-a4db-b7663126c3b1",
            "CareSiteType" : "Facility",
            "VaCareSite" : false,
            "CenterOfExcellence" : "Unknown",
            "SiteContactName" : null,
            "OwningOrganizationName" : null,
            "OtherName" : null,
            "IsHandicapAccessible" : false,
            "IsExternal" : true,
            "Street" : "2999 Innovation Way",
            "City" : "Sharon",
            "State" : "PA",
            "ZipCode" : "16148",
            "County" : null,
            "Country" : null,
            "Latitude" : 41.2163,
            "Longitude" : -80.4529,
            "Geocoded" : true,
            "Visn" : null,
            "Facility" : null,
            "ParentStationNumber" : null,
            "StationNumber" : null,
            "StationName" : null,
            "MainSitePhone" : null
        },
        {
            "Name" : "HUDSON VALLEY CARDIOVASCULAR PRACTICE",
            "Id" : "ed364f3d-7bfb-4735-88d3-b978e842b378",
            "CareSiteType" : "Facility",
            "VaCareSite" : false,
            "CenterOfExcellence" : "Unknown",
            "SiteContactName" : null,
            "OwningOrganizationName" : null,
            "OtherName" : null,
            "IsHandicapAccessible" : false,
            "IsExternal" : true,
            "Street" : "50 HOSPITAL HILL RD FL 2",
            "City" : "SHARON",
            "State" : "CT",
            "ZipCode" : "06069-2096",
            "County" : "LITCHFIELD",
            "Country" : null,
            "Latitude" : 41.880586,
            "Longitude" : -73.481615,
            "Geocoded" : true,
            "Visn" : null,
            "Facility" : null,
            "ParentStationNumber" : null,
            "StationNumber" : null,
            "StationName" : null,
            "MainSitePhone" : null
        },
        {
            "Name" : "Univ of Pittsburgh Physicians",
            "Id" : "af826aea-b692-40b4-8e50-bab58e53b6c2",
            "CareSiteType" : "Facility",
            "VaCareSite" : false,
            "CenterOfExcellence" : "Unknown",
            "SiteContactName" : null,
            "OwningOrganizationName" : null,
            "OtherName" : null,
            "IsHandicapAccessible" : false,
            "IsExternal" : true,
            "Street" : "1623 Dutch Ln",
            "City" : "Sharon",
            "State" : "PA",
            "ZipCode" : "16148",
            "County" : null,
            "Country" : null,
            "Latitude" : 41.25537,
            "Longitude" : -80.453382,
            "Geocoded" : true,
            "Visn" : null,
            "Facility" : null,
            "ParentStationNumber" : null,
            "StationNumber" : null,
            "StationName" : null,
            "MainSitePhone" : null
        },
        {
            "Name" : "SMG VCS Region",
            "Id" : "7c1c4d71-d0ee-44b2-b1fc-bb3d5ad74b92",
            "CareSiteType" : "Facility",
            "VaCareSite" : false,
            "CenterOfExcellence" : "Unknown",
            "SiteContactName" : null,
            "OwningOrganizationName" : null,
            "OtherName" : null,
            "IsHandicapAccessible" : false,
            "IsExternal" : true,
            "Street" : "740 E State St",
            "City" : "Sharon",
            "State" : "PA",
            "ZipCode" : "16146",
            "County" : null,
            "Country" : null,
            "Latitude" : 41.232871,
            "Longitude" : -80.495553,
            "Geocoded" : true,
            "Visn" : null,
            "Facility" : null,
            "ParentStationNumber" : null,
            "StationNumber" : null,
            "StationName" : null,
            "MainSitePhone" : null
        },
        {
            "Name" : "East Indiana Treatment Center LLC",
            "Id" : "01a8d52c-a74f-4a12-901a-bb819fb5d084",
            "CareSiteType" : "Facility",
            "VaCareSite" : false,
            "CenterOfExcellence" : "Unknown",
            "SiteContactName" : null,
            "OwningOrganizationName" : null,
            "OtherName" : null,
            "IsHandicapAccessible" : false,
            "IsExternal" : true,
            "Street" : "500 Ebusiness Way",
            "City" : "Sharonville",
            "State" : "OH",
            "ZipCode" : "45241",
            "County" : null,
            "Country" : null,
            "Latitude" : 0,
            "Longitude" : 0,
            "Geocoded" : false,
            "Visn" : null,
            "Facility" : null,
            "ParentStationNumber" : null,
            "StationNumber" : null,
            "StationName" : null,
            "MainSitePhone" : null
        },
        {
            "Name" : "Univ of Pittsburgh Physicians",
            "Id" : "7b96877a-ea35-466e-8dd1-bbc819c032a8",
            "CareSiteType" : "Facility",
            "VaCareSite" : false,
            "CenterOfExcellence" : "Unknown",
            "SiteContactName" : null,
            "OwningOrganizationName" : null,
            "OtherName" : null,
            "IsHandicapAccessible" : false,
            "IsExternal" : true,
            "Street" : "1075 N Hermitage Rd",
            "City" : "Sharon",
            "State" : "PA",
            "ZipCode" : "16148",
            "County" : null,
            "Country" : null,
            "Latitude" : 41.247511,
            "Longitude" : -80.449906,
            "Geocoded" : true,
            "Visn" : null,
            "Facility" : null,
            "ParentStationNumber" : null,
            "StationNumber" : null,
            "StationName" : null,
            "MainSitePhone" : null
        },
        {
            "Name" : "SHARON HOSPITAL",
            "Id" : "1c38cc09-acdf-4309-85e9-c002a25c6cdc",
            "CareSiteType" : "Facility",
            "VaCareSite" : false,
            "CenterOfExcellence" : "Unknown",
            "SiteContactName" : null,
            "OwningOrganizationName" : "VASSAR HEALTH CONNECTICUT",
            "OtherName" : null,
            "IsHandicapAccessible" : false,
            "IsExternal" : true,
            "Street" : "50 Hospital Hill Rd",
            "City" : "Sharon",
            "State" : "CT",
            "ZipCode" : "06069",
            "County" : null,
            "Country" : null,
            "Latitude" : 0,
            "Longitude" : 0,
            "Geocoded" : true,
            "Visn" : null,
            "Facility" : null,
            "ParentStationNumber" : null,
            "StationNumber" : null,
            "StationName" : null,
            "MainSitePhone" : null
        },
        {
            "Name" : "Soleo Health Inc",
            "Id" : "bfe065da-3945-4129-a940-c02d5c713100",
            "CareSiteType" : "Facility",
            "VaCareSite" : false,
            "CenterOfExcellence" : "Unknown",
            "SiteContactName" : null,
            "OwningOrganizationName" : null,
            "OtherName" : null,
            "IsHandicapAccessible" : false,
            "IsExternal" : true,
            "Street" : "950 Calcon Hook Rd Ste 19",
            "City" : "Sharon Hill",
            "State" : "PA",
            "ZipCode" : "19079",
            "County" : null,
            "Country" : null,
            "Latitude" : 39.90115667,
            "Longitude" : -75.26403667,
            "Geocoded" : true,
            "Visn" : null,
            "Facility" : null,
            "ParentStationNumber" : null,
            "StationNumber" : null,
            "StationName" : null,
            "MainSitePhone" : null
        },
        {
            "Name" : "Primary Health Network",
            "Id" : "19fa17a3-8b7f-455a-98f7-c099819ba406",
            "CareSiteType" : "Facility",
            "VaCareSite" : false,
            "CenterOfExcellence" : "Unknown",
            "SiteContactName" : null,
            "OwningOrganizationName" : null,
            "OtherName" : null,
            "IsHandicapAccessible" : false,
            "IsExternal" : true,
            "Street" : "2320 Highland Rd",
            "City" : "Sharon",
            "State" : "PA",
            "ZipCode" : "16148",
            "County" : null,
            "Country" : null,
            "Latitude" : 41.239192,
            "Longitude" : -80.466289,
            "Geocoded" : true,
            "Visn" : null,
            "Facility" : null,
            "ParentStationNumber" : null,
            "StationNumber" : null,
            "StationName" : null,
            "MainSitePhone" : null
        },
        {
            "Name" : "Irynn and Associates",
            "Id" : "c0f7a546-4337-43e3-a8c3-c0e3b098123e",
            "CareSiteType" : "Facility",
            "VaCareSite" : false,
            "CenterOfExcellence" : "Unknown",
            "SiteContactName" : null,
            "OwningOrganizationName" : null,
            "OtherName" : null,
            "IsHandicapAccessible" : false,
            "IsExternal" : true,
            "Street" : "1075 N Hermitage Rd",
            "City" : "Sharon",
            "State" : "PA",
            "ZipCode" : "16148",
            "County" : null,
            "Country" : null,
            "Latitude" : 41.247511,
            "Longitude" : -80.449906,
            "Geocoded" : true,
            "Visn" : null,
            "Facility" : null,
            "ParentStationNumber" : null,
            "StationNumber" : null,
            "StationName" : null,
            "MainSitePhone" : null
        },
        {
            "Name" : "Upmc Community Medicine Inc",
            "Id" : "672dc753-e96a-454a-b63a-c242125a40a1",
            "CareSiteType" : "Facility",
            "VaCareSite" : false,
            "CenterOfExcellence" : "Unknown",
            "SiteContactName" : null,
            "OwningOrganizationName" : null,
            "OtherName" : null,
            "IsHandicapAccessible" : false,
            "IsExternal" : true,
            "Street" : "705 Brookshire Dr Ste 1",
            "City" : "Sharon",
            "State" : "PA",
            "ZipCode" : "16148",
            "County" : null,
            "Country" : null,
            "Latitude" : 41.24434,
            "Longitude" : -80.45218,
            "Geocoded" : true,
            "Visn" : null,
            "Facility" : null,
            "ParentStationNumber" : null,
            "StationNumber" : null,
            "StationName" : null,
            "MainSitePhone" : null
        },
        {
            "Name" : "HOMETECH ADVANCED THERAPIES",
            "Id" : "2354ef98-11c1-4ced-a0c6-c25639540773",
            "CareSiteType" : "Pharmacy",
            "VaCareSite" : false,
            "CenterOfExcellence" : "Unknown",
            "SiteContactName" : null,
            "OwningOrganizationName" : null,
            "OtherName" : null,
            "IsHandicapAccessible" : false,
            "IsExternal" : true,
            "Street" : "505 ELMWOOD AVE",
            "City" : "SHARON HILL",
            "State" : "PA",
            "ZipCode" : "19079",
            "County" : "DELAWARE",
            "Country" : null,
            "Latitude" : 39.90926683,
            "Longitude" : -75.26168683,
            "Geocoded" : true,
            "Visn" : null,
            "Facility" : null,
            "ParentStationNumber" : null,
            "StationNumber" : null,
            "StationName" : null,
            "MainSitePhone" : null
        },
        {
            "Name" : "RITE AID PHARMACY",
            "Id" : "cd01183c-a562-4d05-adf7-c52591280843",
            "CareSiteType" : "Pharmacy",
            "VaCareSite" : false,
            "CenterOfExcellence" : "Unknown",
            "SiteContactName" : null,
            "OwningOrganizationName" : null,
            "OtherName" : null,
            "IsHandicapAccessible" : false,
            "IsExternal" : true,
            "Street" : "60 S WATER AVE",
            "City" : "SHARON",
            "State" : "PA",
            "ZipCode" : "16146",
            "County" : "MERCER",
            "Country" : null,
            "Latitude" : 41.230969,
            "Longitude" : -80.512154,
            "Geocoded" : true,
            "Visn" : null,
            "Facility" : null,
            "ParentStationNumber" : null,
            "StationNumber" : null,
            "StationName" : null,
            "MainSitePhone" : null
        },
        {
            "Name" : "NHS DELAWARE COUNTY",
            "Id" : "c970973d-989c-4aea-b279-c6d9bf6e671e",
            "CareSiteType" : "Facility",
            "VaCareSite" : false,
            "CenterOfExcellence" : "Unknown",
            "SiteContactName" : null,
            "OwningOrganizationName" : null,
            "OtherName" : null,
            "IsHandicapAccessible" : false,
            "IsExternal" : true,
            "Street" : "800 CHESTER PIKE",
            "City" : "SHARON HILL",
            "State" : "PA",
            "ZipCode" : "19079-1400",
            "County" : "DELAWARE",
            "Country" : null,
            "Latitude" : 39.911931,
            "Longitude" : -75.269968,
            "Geocoded" : true,
            "Visn" : null,
            "Facility" : null,
            "ParentStationNumber" : null,
            "StationNumber" : null,
            "StationName" : null,
            "MainSitePhone" : null
        },
        {
            "Name" : "HUDSON VALLEY CARDIOVASCULAR PRACTICE",
            "Id" : "488aeaa9-6e10-48a8-bdff-c9cf94bbca03",
            "CareSiteType" : "Facility",
            "VaCareSite" : false,
            "CenterOfExcellence" : "Unknown",
            "SiteContactName" : null,
            "OwningOrganizationName" : null,
            "OtherName" : null,
            "IsHandicapAccessible" : false,
            "IsExternal" : true,
            "Street" : "50 HOSPITAL HILL RD FL 2D",
            "City" : "SHARON",
            "State" : "CT",
            "ZipCode" : "06069-2096",
            "County" : "LITCHFIELD",
            "Country" : null,
            "Latitude" : 41.880586,
            "Longitude" : -73.481615,
            "Geocoded" : true,
            "Visn" : null,
            "Facility" : null,
            "ParentStationNumber" : null,
            "StationNumber" : null,
            "StationName" : null,
            "MainSitePhone" : null
        },
        {
            "Name" : "Rebecca Reilly Nivers DPM",
            "Id" : "a4d166fe-edff-43d5-9fd4-d0956fb90f91",
            "CareSiteType" : "Facility",
            "VaCareSite" : false,
            "CenterOfExcellence" : "Unknown",
            "SiteContactName" : null,
            "OwningOrganizationName" : null,
            "OtherName" : null,
            "IsHandicapAccessible" : false,
            "IsExternal" : true,
            "Street" : "12705 Rio Bravo St",
            "City" : "Rosharon",
            "State" : "TX",
            "ZipCode" : "77583",
            "County" : null,
            "Country" : null,
            "Latitude" : 29.502458,
            "Longitude" : -95.419282,
            "Geocoded" : true,
            "Visn" : null,
            "Facility" : null,
            "ParentStationNumber" : null,
            "StationNumber" : null,
            "StationName" : null,
            "MainSitePhone" : null
        },
        {
            "Name" : "Vitreo Retinal Consultants Inc",
            "Id" : "a3a09d5c-43ff-4e83-bd37-d27293e5f0ae",
            "CareSiteType" : "Facility",
            "VaCareSite" : false,
            "CenterOfExcellence" : "Unknown",
            "SiteContactName" : null,
            "OwningOrganizationName" : null,
            "OtherName" : null,
            "IsHandicapAccessible" : false,
            "IsExternal" : true,
            "Street" : "3135 Highland Rd",
            "City" : "Sharon",
            "State" : "PA",
            "ZipCode" : "16148",
            "County" : null,
            "Country" : null,
            "Latitude" : 41.243127,
            "Longitude" : -80.452336,
            "Geocoded" : true,
            "Visn" : null,
            "Facility" : null,
            "ParentStationNumber" : null,
            "StationNumber" : null,
            "StationName" : null,
            "MainSitePhone" : null
        },
        {
            "Name" : "CVS                                                         ",
            "Id" : "ba6bd34d-cfd9-4c02-8a62-d353eda79789",
            "CareSiteType" : "Pharmacy",
            "VaCareSite" : false,
            "CenterOfExcellence" : "Unknown",
            "SiteContactName" : null,
            "OwningOrganizationName" : null,
            "OtherName" : null,
            "IsHandicapAccessible" : false,
            "IsExternal" : true,
            "Street" : "702 CHESTER PIKE",
            "City" : "SHARON HILL                                       ",
            "State" : "PA",
            "ZipCode" : "19079",
            "County" : null,
            "Country" : null,
            "Latitude" : 39.912444,
            "Longitude" : -75.26865,
            "Geocoded" : true,
            "Visn" : null,
            "Facility" : null,
            "ParentStationNumber" : null,
            "StationNumber" : null,
            "StationName" : null,
            "MainSitePhone" : null
        },
        {
            "Name" : "MARTIN CLINIC CORPORATION",
            "Id" : "e7e6029e-30b1-4a46-a992-d37bfeba3a89",
            "CareSiteType" : "Facility",
            "VaCareSite" : false,
            "CenterOfExcellence" : "Unknown",
            "SiteContactName" : null,
            "OwningOrganizationName" : null,
            "OtherName" : null,
            "IsHandicapAccessible" : false,
            "IsExternal" : true,
            "Street" : "5320 US Highway 45",
            "City" : "Sharon",
            "State" : "TN",
            "ZipCode" : "38255",
            "County" : null,
            "Country" : null,
            "Latitude" : 36.228067121,
            "Longitude" : -88.8352957682,
            "Geocoded" : true,
            "Visn" : null,
            "Facility" : null,
            "ParentStationNumber" : null,
            "StationNumber" : null,
            "StationName" : null,
            "MainSitePhone" : null
        },
        {
            "Name" : "EXTRACARE PHARMACY                                          ",
            "Id" : "21a3ce16-20ba-4484-bb18-d7a791444354",
            "CareSiteType" : "Pharmacy",
            "VaCareSite" : false,
            "CenterOfExcellence" : "Unknown",
            "SiteContactName" : null,
            "OwningOrganizationName" : null,
            "OtherName" : null,
            "IsHandicapAccessible" : false,
            "IsExternal" : true,
            "Street" : "1442A CHESTER PIKE",
            "City" : "SHARON HILL                                       ",
            "State" : "PA",
            "ZipCode" : "19079",
            "County" : null,
            "Country" : null,
            "Latitude" : 39.906038604,
            "Longitude" : -75.2786213933,
            "Geocoded" : true,
            "Visn" : null,
            "Facility" : null,
            "ParentStationNumber" : null,
            "StationNumber" : null,
            "StationName" : null,
            "MainSitePhone" : null
        },
        {
            "Name" : "ACRO PHARMACEUTICAL SERVICES                                ",
            "Id" : "63f45d19-36fb-443f-9921-d7d2b7888945",
            "CareSiteType" : "Pharmacy",
            "VaCareSite" : false,
            "CenterOfExcellence" : "Unknown",
            "SiteContactName" : null,
            "OwningOrganizationName" : null,
            "OtherName" : null,
            "IsHandicapAccessible" : false,
            "IsExternal" : true,
            "Street" : "313 HENDERSON DR",
            "City" : "SHARON HILL                                       ",
            "State" : "PA",
            "ZipCode" : "19079",
            "County" : null,
            "Country" : null,
            "Latitude" : 39.906224,
            "Longitude" : -75.261573,
            "Geocoded" : true,
            "Visn" : null,
            "Facility" : null,
            "ParentStationNumber" : null,
            "StationNumber" : null,
            "StationName" : null,
            "MainSitePhone" : null
        },
        {
            "Name" : "SMG VCS Region",
            "Id" : "c971ef74-5113-4efa-aceb-d88d8f2ae2e7",
            "CareSiteType" : "Facility",
            "VaCareSite" : false,
            "CenterOfExcellence" : "Unknown",
            "SiteContactName" : null,
            "OwningOrganizationName" : null,
            "OtherName" : null,
            "IsHandicapAccessible" : false,
            "IsExternal" : true,
            "Street" : "2999 Innovation Way",
            "City" : "Sharon",
            "State" : "PA",
            "ZipCode" : "16148",
            "County" : null,
            "Country" : null,
            "Latitude" : 41.2163,
            "Longitude" : -80.4529,
            "Geocoded" : true,
            "Visn" : null,
            "Facility" : null,
            "ParentStationNumber" : null,
            "StationNumber" : null,
            "StationName" : null,
            "MainSitePhone" : null
        },
        {
            "Name" : "Dartmouth-Hitchcock Clinic",
            "Id" : "508ade1f-2810-46b7-841f-d9342da5566e",
            "CareSiteType" : "Facility",
            "VaCareSite" : false,
            "CenterOfExcellence" : "Unknown",
            "SiteContactName" : null,
            "OwningOrganizationName" : null,
            "OtherName" : null,
            "IsHandicapAccessible" : false,
            "IsExternal" : true,
            "Street" : "452 Old Street Rd Ste 202",
            "City" : "Sharon",
            "State" : "NH",
            "ZipCode" : "03458",
            "County" : null,
            "Country" : null,
            "Latitude" : 42.89244033,
            "Longitude" : -71.9406035,
            "Geocoded" : true,
            "Visn" : null,
            "Facility" : null,
            "ParentStationNumber" : null,
            "StationNumber" : null,
            "StationName" : null,
            "MainSitePhone" : null
        },
        {
            "Name" : "Irynn and Associates",
            "Id" : "3ef9b0e8-c1e3-4f41-bf30-d9ea11ea6c73",
            "CareSiteType" : "Facility",
            "VaCareSite" : false,
            "CenterOfExcellence" : "Unknown",
            "SiteContactName" : null,
            "OwningOrganizationName" : null,
            "OtherName" : null,
            "IsHandicapAccessible" : false,
            "IsExternal" : true,
            "Street" : "1075 N Hermitage Rd",
            "City" : "Sharon",
            "State" : "PA",
            "ZipCode" : "16148",
            "County" : null,
            "Country" : null,
            "Latitude" : 41.247511,
            "Longitude" : -80.449906,
            "Geocoded" : true,
            "Visn" : null,
            "Facility" : null,
            "ParentStationNumber" : null,
            "StationNumber" : null,
            "StationName" : null,
            "MainSitePhone" : null
        },
        {
            "Name" : "QUEST DIAGNOSTICS",
            "Id" : "1be429c8-02cf-4af9-bdb6-dca82e33fbe7",
            "CareSiteType" : "Facility",
            "VaCareSite" : false,
            "CenterOfExcellence" : "Unknown",
            "SiteContactName" : null,
            "OwningOrganizationName" : null,
            "OtherName" : null,
            "IsHandicapAccessible" : false,
            "IsExternal" : true,
            "Street" : "869 E STATE ST STE 1",
            "City" : "SHARON",
            "State" : "PA",
            "ZipCode" : "16146-3341",
            "County" : "MERCER",
            "Country" : null,
            "Latitude" : 41.233497,
            "Longitude" : -80.493162,
            "Geocoded" : true,
            "Visn" : null,
            "Facility" : null,
            "ParentStationNumber" : null,
            "StationNumber" : null,
            "StationName" : null,
            "MainSitePhone" : null
        },
        {
            "Name" : "Upmc Community Medicine Inc",
            "Id" : "34c47618-0fe6-4ef1-8fc2-dd8adb0e0b9b",
            "CareSiteType" : "Facility",
            "VaCareSite" : false,
            "CenterOfExcellence" : "Unknown",
            "SiteContactName" : null,
            "OwningOrganizationName" : null,
            "OtherName" : null,
            "IsHandicapAccessible" : false,
            "IsExternal" : true,
            "Street" : "1599 N Hermitage Rd",
            "City" : "Sharon",
            "State" : "PA",
            "ZipCode" : "16148",
            "County" : null,
            "Country" : null,
            "Latitude" : 41.255782,
            "Longitude" : -80.452212,
            "Geocoded" : true,
            "Visn" : null,
            "Facility" : null,
            "ParentStationNumber" : null,
            "StationNumber" : null,
            "StationName" : null,
            "MainSitePhone" : null
        },
        {
            "Name" : "STEWARD SHARON REGIONAL HEALTH SYSTEM",
            "Id" : "c9a07683-d819-421c-9cdc-e0e8b834bcee",
            "CareSiteType" : "Facility",
            "VaCareSite" : false,
            "CenterOfExcellence" : "Unknown",
            "SiteContactName" : null,
            "OwningOrganizationName" : null,
            "OtherName" : null,
            "IsHandicapAccessible" : false,
            "IsExternal" : true,
            "Street" : "740 E STATE ST",
            "City" : "SHARON",
            "State" : "PA",
            "ZipCode" : "16146-3328",
            "County" : "MERCER",
            "Country" : null,
            "Latitude" : 41.232179,
            "Longitude" : -80.496174,
            "Geocoded" : true,
            "Visn" : null,
            "Facility" : null,
            "ParentStationNumber" : null,
            "StationNumber" : null,
            "StationName" : null,
            "MainSitePhone" : null
        },
        {
            "Name" : "Steward Sharon Regional Health System Inc",
            "Id" : "57369fbe-1cb4-47c2-bae5-e1a62a7557b2",
            "CareSiteType" : "Facility",
            "VaCareSite" : false,
            "CenterOfExcellence" : "Unknown",
            "SiteContactName" : null,
            "OwningOrganizationName" : "Steward Sharon Regional Health System Inc",
            "OtherName" : null,
            "IsHandicapAccessible" : false,
            "IsExternal" : true,
            "Street" : "740 E State St",
            "City" : "Sharon",
            "State" : "PA",
            "ZipCode" : "16146",
            "County" : null,
            "Country" : null,
            "Latitude" : 41.232871,
            "Longitude" : -80.495553,
            "Geocoded" : true,
            "Visn" : null,
            "Facility" : null,
            "ParentStationNumber" : null,
            "StationNumber" : null,
            "StationName" : null,
            "MainSitePhone" : null
        },
        {
            "Name" : "WALGREENS                                                   ",
            "Id" : "2fa394aa-8e16-4773-8fb5-e57b7ebbd57a",
            "CareSiteType" : "Pharmacy",
            "VaCareSite" : false,
            "CenterOfExcellence" : "Unknown",
            "SiteContactName" : null,
            "OwningOrganizationName" : null,
            "OtherName" : null,
            "IsHandicapAccessible" : false,
            "IsExternal" : true,
            "Street" : "900 E STATE ST",
            "City" : "SHARON                                            ",
            "State" : "PA",
            "ZipCode" : "16146",
            "County" : null,
            "Country" : null,
            "Latitude" : 41.232443,
            "Longitude" : -80.493038,
            "Geocoded" : true,
            "Visn" : null,
            "Facility" : null,
            "ParentStationNumber" : null,
            "StationNumber" : null,
            "StationName" : null,
            "MainSitePhone" : null
        },
        {
            "Name" : "ADAGIO HEALTH",
            "Id" : "d45799ad-53da-4e51-ad35-e71a47db3544",
            "CareSiteType" : "Facility",
            "VaCareSite" : false,
            "CenterOfExcellence" : "Unknown",
            "SiteContactName" : null,
            "OwningOrganizationName" : null,
            "OtherName" : null,
            "IsHandicapAccessible" : false,
            "IsExternal" : true,
            "Street" : "87 STAMBAUGH AVE",
            "City" : "SHARON",
            "State" : "PA",
            "ZipCode" : "16146-2775",
            "County" : "MERCER",
            "Country" : null,
            "Latitude" : 41.231907,
            "Longitude" : -80.492894,
            "Geocoded" : true,
            "Visn" : null,
            "Facility" : null,
            "ParentStationNumber" : null,
            "StationNumber" : null,
            "StationName" : null,
            "MainSitePhone" : null
        },
        {
            "Name" : "ACTION PHYSICAL THERAPY AND REHAB PA",
            "Id" : "8ede659b-13a2-488e-91c9-eb9e163b8126",
            "CareSiteType" : "Facility",
            "VaCareSite" : false,
            "CenterOfExcellence" : "Unknown",
            "SiteContactName" : null,
            "OwningOrganizationName" : null,
            "OtherName" : null,
            "IsHandicapAccessible" : false,
            "IsExternal" : true,
            "Street" : "28 PINE ST STE A",
            "City" : "SHARON",
            "State" : "PA",
            "ZipCode" : "16146-1884",
            "County" : "MERCER",
            "Country" : null,
            "Latitude" : 41.233335,
            "Longitude" : -80.503488,
            "Geocoded" : true,
            "Visn" : null,
            "Facility" : null,
            "ParentStationNumber" : null,
            "StationNumber" : null,
            "StationName" : null,
            "MainSitePhone" : null
        },
        {
            "Name" : "Primary Health Network",
            "Id" : "e15e1954-2e16-4f51-bf61-efa75dd9b333",
            "CareSiteType" : "Facility",
            "VaCareSite" : false,
            "CenterOfExcellence" : "Unknown",
            "SiteContactName" : null,
            "OwningOrganizationName" : null,
            "OtherName" : null,
            "IsHandicapAccessible" : false,
            "IsExternal" : true,
            "Street" : "63 Pitt St",
            "City" : "Sharon",
            "State" : "PA",
            "ZipCode" : "16146",
            "County" : null,
            "Country" : null,
            "Latitude" : 41.23394,
            "Longitude" : -80.50793,
            "Geocoded" : true,
            "Visn" : null,
            "Facility" : null,
            "ParentStationNumber" : null,
            "StationNumber" : null,
            "StationName" : null,
            "MainSitePhone" : null
        },
        {
            "Name" : "LIFETREE PHARMACY                                           ",
            "Id" : "6c81e4e4-fe04-411e-9f71-f5197c93b3e3",
            "CareSiteType" : "Pharmacy",
            "VaCareSite" : false,
            "CenterOfExcellence" : "Unknown",
            "SiteContactName" : null,
            "OwningOrganizationName" : null,
            "OtherName" : null,
            "IsHandicapAccessible" : false,
            "IsExternal" : true,
            "Street" : "800 CHESTER PIKE",
            "City" : "SHARON HILL                                       ",
            "State" : "PA",
            "ZipCode" : "19079",
            "County" : null,
            "Country" : null,
            "Latitude" : 39.911931,
            "Longitude" : -75.269968,
            "Geocoded" : true,
            "Visn" : null,
            "Facility" : null,
            "ParentStationNumber" : null,
            "StationNumber" : null,
            "StationName" : null,
            "MainSitePhone" : null
        },
        {
            "Name" : "CVS PHARMACY",
            "Id" : "60ad9e76-453e-491b-a2dd-f65469fa0227",
            "CareSiteType" : "Pharmacy",
            "VaCareSite" : false,
            "CenterOfExcellence" : "Unknown",
            "SiteContactName" : null,
            "OwningOrganizationName" : null,
            "OtherName" : null,
            "IsHandicapAccessible" : false,
            "IsExternal" : true,
            "Street" : "702 CHESTER PIKE",
            "City" : "SHARON HILL",
            "State" : "PA",
            "ZipCode" : "19079",
            "County" : "DELAWARE",
            "Country" : null,
            "Latitude" : 39.912444,
            "Longitude" : -75.26865,
            "Geocoded" : true,
            "Visn" : null,
            "Facility" : null,
            "ParentStationNumber" : null,
            "StationNumber" : null,
            "StationName" : null,
            "MainSitePhone" : null
        },
        {
            "Name" : "Primary Health Network",
            "Id" : "a580bc27-5884-404d-a35f-f6f750c6c9ba",
            "CareSiteType" : "Facility",
            "VaCareSite" : false,
            "CenterOfExcellence" : "Unknown",
            "SiteContactName" : null,
            "OwningOrganizationName" : null,
            "OtherName" : null,
            "IsHandicapAccessible" : false,
            "IsExternal" : true,
            "Street" : "2320 Highland Rd",
            "City" : "Sharon",
            "State" : "PA",
            "ZipCode" : "16148",
            "County" : null,
            "Country" : null,
            "Latitude" : 41.239192,
            "Longitude" : -80.466289,
            "Geocoded" : true,
            "Visn" : null,
            "Facility" : null,
            "ParentStationNumber" : null,
            "StationNumber" : null,
            "StationName" : null,
            "MainSitePhone" : null
        },
        {
            "Name" : "Primary Health Network",
            "Id" : "362d829d-3324-4cb5-95fc-f76554ee5621",
            "CareSiteType" : "Facility",
            "VaCareSite" : false,
            "CenterOfExcellence" : "Unknown",
            "SiteContactName" : null,
            "OwningOrganizationName" : null,
            "OtherName" : null,
            "IsHandicapAccessible" : false,
            "IsExternal" : true,
            "Street" : "100 Shenango Ave",
            "City" : "Sharon",
            "State" : "PA",
            "ZipCode" : "16146",
            "County" : null,
            "Country" : null,
            "Latitude" : 41.234219,
            "Longitude" : -80.50819,
            "Geocoded" : true,
            "Visn" : null,
            "Facility" : null,
            "ParentStationNumber" : null,
            "StationNumber" : null,
            "StationName" : null,
            "MainSitePhone" : null
        },
        {
            "Name" : "East Indiana Treatment Center LLC",
            "Id" : "559f4235-1c6b-48e7-a9ae-f7fc81e65436",
            "CareSiteType" : "Facility",
            "VaCareSite" : false,
            "CenterOfExcellence" : "Unknown",
            "SiteContactName" : null,
            "OwningOrganizationName" : null,
            "OtherName" : null,
            "IsHandicapAccessible" : false,
            "IsExternal" : true,
            "Street" : "500 Ebusiness Way",
            "City" : "Sharonville",
            "State" : "OH",
            "ZipCode" : "45241",
            "County" : null,
            "Country" : null,
            "Latitude" : 0,
            "Longitude" : 0,
            "Geocoded" : false,
            "Visn" : null,
            "Facility" : null,
            "ParentStationNumber" : null,
            "StationNumber" : null,
            "StationName" : null,
            "MainSitePhone" : null
        },
        {
            "Name" : "Sharon General Hospital",
            "Id" : "32140e85-aa8e-4f76-9625-f88ae3683fb2",
            "CareSiteType" : "Facility",
            "VaCareSite" : false,
            "CenterOfExcellence" : "Unknown",
            "SiteContactName" : null,
            "OwningOrganizationName" : null,
            "OtherName" : null,
            "IsHandicapAccessible" : false,
            "IsExternal" : true,
            "Street" : "740 E State St",
            "City" : "Sharon",
            "State" : "PA",
            "ZipCode" : "16146",
            "County" : null,
            "Country" : null,
            "Latitude" : 41.23194167,
            "Longitude" : -80.49593833,
            "Geocoded" : true,
            "Visn" : null,
            "Facility" : null,
            "ParentStationNumber" : null,
            "StationNumber" : null,
            "StationName" : null,
            "MainSitePhone" : null
        },
        {
            "Name" : "RITE AID                                                    ",
            "Id" : "878f22d0-68d7-42ee-92ef-f97a92a520c6",
            "CareSiteType" : "Pharmacy",
            "VaCareSite" : false,
            "CenterOfExcellence" : "Unknown",
            "SiteContactName" : null,
            "OwningOrganizationName" : null,
            "OtherName" : null,
            "IsHandicapAccessible" : false,
            "IsExternal" : true,
            "Street" : "811 E STATE ST",
            "City" : "SHARON                                            ",
            "State" : "PA",
            "ZipCode" : "16146",
            "County" : null,
            "Country" : null,
            "Latitude" : 41.233484,
            "Longitude" : -80.494311,
            "Geocoded" : true,
            "Visn" : null,
            "Facility" : null,
            "ParentStationNumber" : null,
            "StationNumber" : null,
            "StationName" : null,
            "MainSitePhone" : null
        },
        {
            "Name" : "Walgreens Heathcare Clinic",
            "Id" : "d7e6cf41-8663-499a-a8ec-fb5bd87aa873",
            "CareSiteType" : "Facility",
            "VaCareSite" : false,
            "CenterOfExcellence" : "Unknown",
            "SiteContactName" : null,
            "OwningOrganizationName" : null,
            "OtherName" : null,
            "IsHandicapAccessible" : false,
            "IsExternal" : true,
            "Street" : "12110 Lebanon Rd",
            "City" : "Sharonville",
            "State" : "OH",
            "ZipCode" : "45241",
            "County" : null,
            "Country" : null,
            "Latitude" : 39.294828,
            "Longitude" : -84.391735,
            "Geocoded" : true,
            "Visn" : null,
            "Facility" : null,
            "ParentStationNumber" : null,
            "StationNumber" : null,
            "StationName" : null,
            "MainSitePhone" : null
        },
        {
            "Name" : "Primary Health Network",
            "Id" : "415a8fd4-7a3c-42b6-a20d-ffcc54c02220",
            "CareSiteType" : "Facility",
            "VaCareSite" : false,
            "CenterOfExcellence" : "Unknown",
            "SiteContactName" : null,
            "OwningOrganizationName" : null,
            "OtherName" : null,
            "IsHandicapAccessible" : false,
            "IsExternal" : true,
            "Street" : "89 Elm Ave Ste C",
            "City" : "Sharon",
            "State" : "PA",
            "ZipCode" : "16146",
            "County" : null,
            "Country" : null,
            "Latitude" : 41.23429,
            "Longitude" : -80.49829,
            "Geocoded" : true,
            "Visn" : null,
            "Facility" : null,
            "ParentStationNumber" : null,
            "StationNumber" : null,
            "StationName" : null,
            "MainSitePhone" : null
        }
    ]
}
